,고유번호,상호명,신주소,Latitude,Longitude,전화번호,TAG,dis_diff,Time,distance
2,36,남산서울타워,"04340 서울 용산구 남산공원길 105 (용산동2가, YTN서울타워)",37.5511694,126.9882266,02-3455-9277,"별에서온그대,서울야경,남산타워전망대,남산데이트,데이트코스,야경,N서울타워,김수현,남산케이블카,남산타워,남산서울타워",0.020367074,48,7
3,72,경복궁,"03045 서울 종로구 사직로 161 (세종로, 경복궁)",37.579617,126.977041,02-3700-3900,"역사,경복궁한복대여,서울고궁,광화문,경복궁야간개장,경복궁,조선왕조,궁,경복궁데이트",0.010448244,10,1.4
4,90,한양도성박물관,"03098 서울 종로구 율곡로 283 (종로6가, 서울디자인지원센터)",37.572737,127.008519,02-120,"한양도성,낙산공원, 가볼만한곳,서울스탬프투어,서울한양도성,서울성곽,그녀는예뻤다,유적지,순성길,역사",0.029622526,17,3.3
5,95,DDP(동대문디자인플라자),04566 서울 중구 을지로 281 (을지로7가),37.5667521,127.0101046,02-2153-0000,"동대문역사문화공원역,동대문디자인플라자,DDP,동대문DDP,그녀는예뻤다,전시,미술관,문화공간,별에서온그대,김수현,문화,서울전시,서울패션위크",0.031126694,12,3.3
6,252,63스퀘어,"07345 서울 영등포구 63로 50 (여의도동, 63한화생명빌딩)",37.5193776,126.9402103,02-789-5663,"63빌딩,아쿠아리움,63빌딩전망대,전망대,63아쿠아플라넷,63빌딩레스토랑,63아트,데이트코스,63스퀘어",0.063331421,43,9.2
7,276,남산골 한옥마을,04626 서울 중구 퇴계로34길 28 (남산한옥마을),37.559315,126.994477,02-2264-4412,"문화공간,서울여행지,남산구경,전통,무한도전,서울구경,전통혼례,민씨가옥,남산골한옥마을",0.018383179,12,2.4
8,281,통인시장,03036 서울 종로구 자하문로15길 18,37.5807277,126.9699348,02-722-0911,"엽전도시락,종로통인시장,통인시장닭꼬치,런닝맨,엽전시장,통인시장데이트,효자베이커리,통인시장, 1박2일,기름떡볶이",0.014586102,14,2.3
9,291,신사동 가로수길,06028 서울 강남구 압구정로 120 일대,37.5235779,127.0219058,02-120,"서울,서울투어,신사동가로수길,서울쇼핑,쇼핑거리,서울여행,한국길거리,쇼핑,서울가볼만한곳,가로수길,길거리쇼핑,서울관광,문화,아이쇼핑",0.062692693,62,19.5
10,295,창덕궁,"03072 서울 종로구 율곡로 99 (와룡동, 창덕궁)",37.5794309,126.9910426,02-3668-2300,"후원,창덕궁홍매화,역사,창덕궁야간개장,유네스코세계문화유산,봄꽃나들이,창덕궁,창경궁,궁,비원",0.015623727,15,2.8
11,297,창경궁,"03072 서울 종로구 창경궁로 185 (와룡동, 창경궁)",37.5787708,126.9948698,02-762-4868,"한복대여,조선궁궐,서울고궁,창경궁야간개장,역사,창경궁,비원,서울가볼만한곳,궁",0.018368624,16,3.2
12,305,세종문화회관,03172 서울 종로구 세종대로 175 (세종문화회관),37.5725254,126.9756429,02-399-1000,"공연장,행사,세종문화회관,광화문역,종로,전시,문화,경복궁역",0.004671095,7,0.945
13,338,SM TOWN 코엑스아티움,서울 강남구 삼성동 159-9,37.5667521,127.0101046,02-2153-0660,"DDP,기념품,동대문역사문화공원역,연예인,EXO,기념품숍,SM,한류,동대문디자인플라자,SM-아티스트,SM-TOWN-스타디움",0.031126694,62,18
14,358,세븐럭 카지노(강북 힐튼점),04637 서울 중구 소월로 50 (힐튼호텔),37.5552329,126.9758739,02-3466-6100,"빅휠, 바카라,세븐럭카지노,힐튼,룰렛,다이사이,카지노, 남산, 블랙잭, 레저, 슬롯머신",0.014499197,15,2.5
15,360,SM 사옥,06012 서울 강남구 선릉로190길 114 (청담동),37.5279268,127.0506902,02-6240-9800,"슈퍼주니어,연예인SM사옥SM,SM,강남,한류,Exo, 소녀시대, 기획사",0.082731364,61,17.3
16,369,북한산국립공원,02700 서울 성북구 보국문로34길 6-21 (정릉동),37.6195359,127.000735,02-909-0497,"서울북한산, 산,북한산성,북한산국립공원,자연,북한산둘레길,도봉산",0.054635764,121,28.3
17,374,코엑스 아쿠아리움,06164 서울 강남구 영동대로 513 코엑스몰 B1,37.511685,127.0593394,02-700-7200 (단체예약 02-700-7300),"코엑스,테마파크,자연,청담역,수족관,삼성역,코엑스아쿠아리움",0.098832931,61,17.7
18,379,선유도 공원,"07200 서울 영등포구 선유로 343 (당산동, 선유도공원)",37.5437229,126.8997207,02-2631-9368,"서울데이트코스,서울야경,선유도역,공원,무한도전,재활용생태공원,자연,선유도공원,서울공원,서울꽃구경",0.08340897,48,11.1
19,380,명동실탄사격장,04537 서울 중구 명동8가길 27 선샤인빌딩3층,37.5618939,126.9864389,02-777-6604,"명동실탄사격장,실탄사격장,사격장,서울실탄사격장,드라마촬영지, 레저,명동사격장,명동역,체험관",0.010485363,8,1.9
20,405,롯데월드 아이스링크,05554 서울 송파구 올림픽로 240 (롯데월드),37.5111158,127.098167,02-1661-2000,"스케이트장,레저,테마파크,롯데월드아이스링크,아이스링크,잠실역,롯데월드",0.132564852,64,19.5
21,411,봉은사,06087 서울 강남구 봉은사로 531 (봉은사),37.5152006,127.0574369,02-3218-4800,"절,서울절,코엑스,홍매화,서울꽃구경,연등행렬,삼성동절,서울벚꽃,종교,봉은사,강남절,수도산",0.095252128,62,17.8
22,433,국립중앙박물관,04383 서울 용산구 서빙고로 137 (국립중앙박물관),37.5238506,126.9804702,02-2077-9000,"국립중앙박물관,역사,서울가볼만한곳,어린이박물관,박물관,극장용,이집트보물전",0.045541671,34,7.9
23,450,문화역서울 284,04509 서울 중구 통일로 1 (서울역 본옥),37.55615,126.971753,02-3407-3500,"서울역전시회,구서울역,문화역서울,미술관,유적지,서울역미술관,역사,문화역서울284",0.015119835,12,2.3
24,470,트릭아이미술관,04039 서울 마포구 홍익로3길 20 (서교오피스텔) B02호,37.5535655,126.9217263,02-3144-6300,"트릭아이뮤지엄,홍대트릭아이,문화,러브뮤지엄,3D체험미술관,트릭아이미술관,미술관,AR뮤지엄,아이스뮤지엄,이색미술관",0.059499768,33,6.9
25,471,운현궁,03131 서울 종로구 삼일대로 464 (운현궁),37.576034,126.987052,02-766-9090,"역사,전통,운현궁,궁,유적지,군중의상체험,랜드마크,안국역,종로3가역,공연",0.01038326,9,1.9
26,507,종묘,"03135 서울 종로구 종로 157 (훈정동, 종묘공원)",37.574583,126.994143,02-765-0195,"창경궁,종묘사직,종묘,창덕궁,종로3가,역사,유적지,유네스코세계문화유산,종묘제례,종묘관람",0.015931284,12,2.6
27,515,삼성 딜라이트,06620 서울 서초구 서초대로74길 11 (삼성전자빌딩),37.4966085,127.0269023,02-2255-2277,"홍보관,삼성전자홍보관,삼성딜라이트,강남역,서울혼자가볼만한곳,전시,삼성체험관,체험관",0.087066662,67,20.1
28,846,서울대학교병원 의학박물관,03080 서울특별시 종로구 대학로 101 (연건동),37.5787974,127.0010352,02-2072-2636,"종로구연건동,서울대학교,의학박물관,서울대학교병원,혜화역,박물관,역사,전시",0.023885514,16,3
29,859,전쟁기념관,"04353 서울 용산구 이태원로 29 (용산동1가, 전쟁기념관)",37.5366059,126.9771397,02-709-3139,"가볼만한곳,주말나들이추천,삼각지역,어린이날,역사박물관,용산어린이박물관,전쟁기념관,광개토대왕릉비",0.032823292,23,5.3
30,889,정동길(덕수궁 돌담길),04516 서울중구정동길 ,37.565094,126.975406,NA,"덕수궁돌담길,김수현,영국대사관,이화여고,러시아대사관,미국대사관,정동교회,정동길,별에서온그대,역사,독일대사관, 문화공간,정동극장",0.00564399,7,1.5
31,1136,송파나루근린공원,05608 서울 송파구 잠실동 47-1,37.509032,127.0978257,02-2147-2109,"석촌호수백조,매직아일랜드,가볼만한곳,석촌호수공원,서울가볼만한곳,석촌호수벚꽃축제,데이트코스,스위트스완, 공원,서울야경",0.133189344,65,19.5
32,1150,이화여고 100주년 기념관,"04516 서울 중구 정동길 26 (정동, 이화100주년기념관)",37.5662298,126.9707329,02-752-3353,"이화여고,문화,이화여고100주년기념관,기념관,시청역,심슨기념관,화암홀,서대문역, 공연장",0.008926462,8,1.6
33,1151,경교장,03181 서울 종로구 새문안로 29 (경교장),37.5684597,126.9680114,02-735-2038,"역사,임시정부청사,김구,대한민국임시정부,역사관,서대문역,유적지,백범김구,백범김구사저,경교장,독립문역,전시",0.011114348,11,1.6
34,1153,양화진외국인선교사묘원,"04084 서울 마포구 양화진길 46 (합정동, 양화진홍보관)",37.5466381,126.9114221,02-332-9174,"양화진외국인선교사묘원,합정역,한국선교기념관,기념관,성지,종교",0.071382862,44,9.8
35,1159,경희궁,03177 서울 종로구 새문안로 45 (경희궁),37.5712378,126.9681688,02-724-0274,"덕수궁, 고궁,경복궁,서대문,광화문, 창경궁,창덕궁,서울역사박물관,조선",0.011077874,10,1.5
36,1183,락고재,03056 서울 종로구 계동길 49-23 (계동),37.5800634,126.9861417,02-742-3410,"북촌한옥호텔,전통,전통체험,북촌한옥스테이, 문화공간,한옥,락고재,안국역",0.012809038,12,2.3
37,1232,삼성미술관 리움,04348 서울 용산구 이태원로55길 60-16 (한남동),37.5383951,126.999265,02-2014-6901,"한남동데이트,한남동미술관,삼성미술관리움,올프리마,문화,리움미술관,삼성리움,미술관,이태원전시",0.036967881,33,6
38,1257,LG아트센터,06141 서울 강남구 논현로 508 (GS강남타워),37.502423,127.037589,02-2005-0114,"문화,LG아트센터, 공연장",0.088906731,89,24.9
39,1262,카이스갤러리,06017 서울 강남구 언주로174길 13 (신사동) 1층,37.5285487,127.0350113,02-511-0668,"청담동,CAISGALLERY,강남갤러리,화랑,미술관,강남화랑,카이스갤러리",0.069237754,59,17.5
40,1268,씨네 드 쉐프,06022 서울 강남구 압구정로30길 45 (신사동),37.5242994,127.0294095,1544-1122,"씨네드쉐프,카페,레스토랑,CGV압구정점,요리,압구정역,극장, 문화공간,문화,cinedechef",0.067555158,65,20.3
41,1272,풍월당,"06018 서울 강남구 도산대로53길 39 (신사동, 신사동 C/K빌딩)",37.5258161,127.0389168,02-512-2222,"클래식음반매장,압구정로데오역,클래식카페,클래식,로젠카발리에,풍월당,풍월당,카페,쇼핑,음반매장",0.074003411,58,17.2
42,1278,서울남산국악당,04626 서울 중구 퇴계로34길 28 (남산한옥마을),37.559315,126.994477,02-2261-0512,"공연장, 전통,서울남산국악당",0.018383179,12,2.4
43,1399,만해한용운 심우장,02879 서울 성북구 성북로29길 24 (만해 한용운 심우장),37.5936472,126.9917756,02-2241-2632,"성북동,유적지,심우장,만해한용운심우장,역사,한용운,성북명소,성북동역사문화지구",0.027391365,30,4.2
44,1403,허준박물관,07525 서울특별시 강서구 허준로 87 (가양동),37.5679303,126.8512999,02-3661-8686,"전시,체험관,박물관,한의학박물관,허준박물관,허준,역사",0.127796524,63,16.3
45,1411,강서습지생태공원,07518 서울특별시 강서구 양천로27길 279-23,37.5859954,126.8171323,02-3780-0621,"강서구개화동, 자연,한강생태공원,강서구주말나들이,강서습지생태공원,공원,한강",0.162806961,72,19.5
47,1421,정동극장,"04518 서울 중구 정동길 43 (정동, 정동극장)",37.565963,126.9728046,02-751-1500,"공연장,서대문역,문화,극장,시청역,정동극장,광화문역",0.007148524,6,1.4
48,1422,서울 무형문화재 교육전시장,03059 서울 종로구 북촌로 20-13,37.5787506,126.9857259,02-747-0303,"전시관,공예,전통,전통공예,북촌한옥마을,서울무형문화재교육전시장,관광지,문화재,안국역",0.011490387,11,2.1
49,1427,쇳대박물관,110-810 서울특별시 종로구 이화장길 100 (동숭동),37.5797646,127.004601,02-766-6494,"쇳대박물관, 역사,박물관",0.027548476,17,3.7
50,1439,네이처 포엠,"06011 서울강남구압구정로 461 (청담동, 네이처포엠)",37.517336,127.059213,02-511-5552,"전시, 갤러리장,미술관,압구정로데오역,문화,갤러리, 백남준미술관, 청담동,갤러리지오,네이처포엠,청담역",0.095538683,54,15.7
51,1442,스페이스 씨,"135-120 서울특별시 강남구 언주로 827, 스페이스씨 (신사동)",37.5240709,127.0328455,02-547-9177,"스페이스씨,문화, 문화공간",0.070299095,61,18.1
52,1451,예림당아트홀,"06226 서울 강남구 언주로 337 (역삼동, 동영문화센터) 2층",37.497839,127.0442979,02-738-8289,"예림당아트홀,공연장,뮤지컬피노키오,뮤지컬보물섬,송승환,문화,역삼역,전시,어린이문화공간",0.096794431,81,23.4
53,1453,두산아트센터,"03129 서울 종로구 종로33길 15 (연지동, 두산아트센터)",37.571729,127.0011893,02-708-5001,"공연장,문화,종로5가역,두산아트센터,아티스트,죽음과소녀,스페이스111,연강홀,뮤지컬,연극",0.022226402,13,2.9
54,1459,리기태전통연공방,03051 서울 종로구 창덕궁5길 4 (원서동),37.5829925,126.9892812,02-720-4114,"연,전통문화,안국역,전통,리기태,북촌한옥마을,리기태전통연공방,문화공간",0.01701271,13,2.6
55,1466,서울랜드,"13829 경기 과천시 광명로 181 (막계동, 서울랜드)",37.4341563,127.0201267,02-509-6000,"야간개장,문화,캐릭터플라워페스티벌,서울랜드,과천,서울대공원,테마파크,동물원,눈썰매장,벚꽃축제",0.141305508,112,33.1
56,1478,라트어린이극장,"06296 서울 강남구 논현로 164 (도곡동, 유니북스사옥)",37.4878837,127.0418002,02-560-0999,"공연,매봉역,라트어린이극장,어린이극장, 교육,공연장,영어체험,영어연극,양재역",0.102825149,76,22.7
57,1484,LG사이언스홀 서울,07336 서울 영등포구 여의대로 128,37.5279663,126.9292856,02-3773-1053,"영등포LG사이언스홀,서울LG사이언스홀,여의나루역,기술,LG사이언스홀,과학관,체험형과학관,전시,체험관",0.064766372,39,8.2
58,1525,서울시립미술관 서소문본관,"04515 서울 중구 덕수궁길 61 (서소문동, 서울시립미술관)",37.5640253,126.9737793,02-2124-8800,"문화,별에서온그대,서울전시,시청역,날개.파티,가볼만한곳,서울시립미술관,김수현,미술관,서울미술관,덕수궁",0.007534268,7,1.4
59,1539,서울광장,100-101 서울특별시 중구 세종대로 110 (태평로1가),37.5675672,126.977277,02-120,"문화공간,서울광장, 문화",0.002556479,4,0.837
60,1546,예지원 장충동,04605 서울특별시 중구 장충단로 72 (장충동2가),37.5525546,127.0030594,02-2234-3325,"전통문화,예절교육,예지원,문화,도서관,다도,전통예절교육,국회도서관",0.02928165,27,4.9
61,1562,우장근린공원,"07658 서울 강서구 화곡로 302 (화곡동, 강서구청)",37.5509103,126.8495742,02-2600-4185,"우장근린공원,우장공원,우장산,우장산공원,자연,휴식공간,공원,우장산근린공원",0.130823204,71,18.6
62,1572,DMC 홍보관,03926 서울특별시 마포구 월드컵북로 366 (상암동),37.5777446,126.8921565,02-309-7067,"디지털 미디어 시티, 상암동,상암DMC,MCN체험,전시관,DMC 홍보관,DMC디지털미디어시티",0.087334129,50,12.9
63,1579,탑골공원,110-122 서울특별시 종로구 종로 99 (종로2가),37.5711455,126.9883295,02-731-0534,"역사,탑골공원, 유적지",0.009409971,7,1.3
64,1596,정독도서관,03055 서울 종로구 북촌로5길 48 (정독도서관),37.5810251,126.9829983,02-2011-5799,"도서관,남산도서관,북촌도서관,문화,종로도서관,북촌삼청동,서울벚꽃,정독도서관",0.01229224,12,2.1
65,1605,응봉산인공암벽공원,04742 서울특별시 성동구 독서당로60길 13-1 (응봉동),37.5486209,127.0310033,02-2286-6061,"암벽등반,응봉산인공암벽,레저,응봉산,응봉역,공원,응봉산암벽등반공원,응봉암벽등반공원",0.055908374,38,10.6
66,1618,JUMP(점프) 전용극장,"04549 서울 중구 마른내로 47 (초동, 명보극장) 3층 점프전용극장",37.5646936,126.9931903,02-722-3995,"종로점프,뮤지컬점프,JUMP,점프,명보아트홀,점프,점프전용극장,마샬아츠,엔터테인먼트",0.014857566,8,1.9
67,1625,중랑천,서울특별시중랑구중화동중량천길,37.602457,127.072005,NA,NA,0.09863152,48,15.1
68,1647,국립민속박물관,"03045 서울 종로구 삼청로 37 (세종로, 국립민속박물관)",37.5816456,126.9789948,02-3704-3114,"역사,광화문,인사동,박물관,국립민속박물관,추억의거리,삼청동,경복궁",0.012274656,12,2.1
69,1676,아름지기,03044 서울특별시 종로구 효자로 17 (통의동),37.5791178,126.972759,02-741-8373,"전시,전통문화,전통,전통공예품,경복궁역,문화공간,아름지기재단,아름지기전시,아름지기",0.011621287,12,1.9
70,1694,갤러리 현대,"03062 서울 종로구 삼청로 14 (사간동, 현대갤러리)",37.577203,126.9799131,02-2287-3500,"문화,경복궁역,미술관,종로구사간동,삼청동,전시,갤러리현대,안국역,미술",0.007875012,9,1.3
71,1696,동숭아트센터,03084 서울특별시 종로구 동숭길 122 (동숭동),37.583653,127.0036978,02-766-3390,"공연장,대학로,동숭아트센터,홍광호,문화,미스터마우스,예술,혜화역,전시",0.028453373,18,3.9
72,1708,국립현대미술관 덕수궁관,04519 서울특별시 중구 세종대로 99 (정동),37.5658049,126.9751461,02-2022-0600,"현대미술,덕수궁관,덕수궁미술관,문화,전시,국립현대미술관덕수궁관,미술관,예술,관광지",0.005316028,6,1.3
73,1733,아르코(ArKo)예술극장,03086 서울특별시 종로구 대학로8길 7 (동숭동),37.5811446,127.0029667,02-3668-0007,"아르코예술극장,공연장,대학로예술극장,문화,LDP무용단,혜화역,예술,대학로",0.026623084,17,3.7
74,1737,에이에이더디자인뮤지엄,04049 서울특별시 마포구 와우산로17길 19-18 (서교동),37.5495124,126.9213148,02-3143-7311,"aA갤러리,상수역예술,디자인전시,홍대카페,문화,합정카페,상수카페,전시, 미술관",0.061091351,34,7
76,1747,산울림소극장,"04052 서울특별시 마포구 와우산로 157, 지하 1층 소극장 산울림 (서교동)",37.5550951,126.9299385,"02-334-5915,25","산울림소극장,홍대,소극장,예술,공연장,공연,서교동,홍대소극장,문화",0.051181176,29,5.8
77,1755,서대문독립공원,03732 서울시 서대문구 통일로 251 (현저동),37.574271,126.956071,02-364-4686,"독립선언기념탑,역사관,독립문역,서대문형무소역사관,서대문독립공원,공원,서대문형무소,역사",0.023533023,18,3.1
78,1761,서울놀이마당,"05608 서울 송파구 삼학사로 136 (잠실동, 서울놀이마당)",37.5092404,127.0991543,02-2147-2800,"민속예술,한옥,전통,공연장,서울놀이마당,석촌호수공원,잠실역",0.13428168,68,20.2
79,1776,국립 4.19민주묘지,01009 서울 강북구 4.19로8길 17,37.6328759,127.0200966,02-996-0419,"유적지,역사,수유동,4.19민주혁명,4.19민주묘지,4.19혁명국민문화제,국립4.19민주묘지",0.07559441,83,25.2
80,1778,목동 아이스링크,07990 서울특별시 양천구 안양천로 939 (목동),37.5305809,126.8810483,02-2643-3057,"목동스케이트장,스케이트장,목동야구장,목동종합운동장,목동아이스링크,레저,오목교역",0.105434988,67,17.2
81,1780,민속극장 풍류,"06153 서울 강남구 봉은사로 406 (삼성동, 서울중요무형문화재전수회관)",37.5100707,127.0446035,02-3011-2178,"민속극장풍류,전통음악, 전수회관, 전통,공연장,전통춤,선릉역,공연,선정릉역",0.088367429,68,19
82,1789,도산공원,06020 서울 강남구 도산대로45길 20 (도산전시관),37.5239121,127.0355914,02-3423-6285,"도산공원,도산안창호선생,전시,공원,도산기념관,압구정로데오,역사,압구정역,안창호",0.072519923,61,18
83,1799,매화근린공원,07550 서울특별시 강서구 양천로62길 14 (등촌동),37.5560766,126.8603757,02-2600-4187,"강서구등촌동,겸재정선기념관,증미역,매화공원,자연,등촌역,공원",0.119454721,62,15.8
84,1809,목인박물관,03145 서울특별시 종로구 인사동11길 20 (견지동),37.581368,126.9646857,02-722-5066,"행사,인사동,조각박물관,안국역,문화,쌈지길,목인갤러리,목인박물관,전시,박물관,관광지",0.006395368,38,4.6
85,1826,사직단,03027 서울 종로구 사직로9길 5 (사직단),37.5760163,126.9679914,02-2148-2834,"사직단,사직대제,역사,문화,유적지,제사,사직공원,경복궁",0.012934342,15,2.2
86,1833,서대문형무소역사관,"03732 서울 서대문구 통일로 251 (현저동, 독립공원)",37.5740613,126.9563603,02-360-8590,"서울아이들과가볼만한곳,기념관,서대문형무소,역사,서대문형무소역사관,삼일절,서울구치소",0.023206854,18,3.1
87,1840,서울숲,04770 서울특별시 성동구 뚝섬로 273 (성수동1가),37.5431644,127.0418547,02-460-2905,"습지생태원,서울가볼만한곳,생태숲,서울숲,데이트코스,자연,곤충식물원,관광명소,나비정원,공원,뚝섬유원지",0.068017811,41,12.5
88,1846,약현성당,04506 서울시 중구 청파로 447-1,37.5589521,126.9670169,02-362-1891,"서울성당결혼식,약현성당,성당,관광지,바다결혼식,중림동성당,고딕성당,종교",0.01594611,16,2.4
89,1853,어린이대공원,"04991 서울특별시 광진구 능동로 216, 서울어린이대공원(능동)",37.5482248,127.0808374,02-450-9311,"동물원,봄꽃축제,어린이대공원,눈썰매,서울여행,데이트코스,서울벛꽃,서울대공원",0.103923307,47,13.4
90,1862,원효로성당,04361 서울 용산구 원효로19길 49 (원효로4가),37.5343852,126.9533902,02-701-5501,"성당,성심여자중학교,원효로성당,용산신학교,서울근대문화재,예수성심성당, 성심여자고등학교",0.043409901,28,6.1
91,1872,갤러리MHK,03053 서울 종로구 팔판길 12,37.5807513,126.980441,02-720-1524,"문화,미술관,북촌,학고재,갤러리,종로구소격동,북촌갤러리,인사동,삼청동갤러리",0.011460113,12,1.9
93,1886,한국의집,"04626 서울 중구 퇴계로36길 10 (필동2가, 한국의집)",37.5602041,126.9947198,02-2266-9101,"한국의집,판드라마,전통,심청전,공연장,전통예술공연,궁중혼례,전통혼례,전통한식체험,전통문화체험",0.018121295,11,2.4
94,1891,세븐럭 카지노(강남),06164 서울특별시 강남구 테헤란로87길 58 (삼성동),37.5101935,127.0585824,02-3466-6000,"코엑스카지노,강남카지노,그랜드코리아레저, 다이사이,레저,룰렛,이민호, 바카라,세븐럭카지노,서울카지노",0.099102593,62,17.9
95,1900,광화문광장,03154 서울특별시 종로구 세종대로 172,37.571619,126.976754,02-120,"청계천,경복궁역,경복궁,광화문광장,세종문화회관,가볼만한곳,광화문행사,광화문역, 이순신동상,광화문집회",0.003240542,7,0.854
96,1904,보신각터,"03189 서울 종로구 종로 54 (관철동, 보신각)",37.5697987,126.9837167,02-2133-0983,"종로,타종행사,보신각타종체험,보신각,보신각종,제야의종,종로보신각",0.004648092,4,0.712
97,1910,성곡미술관,"03175 서울 종로구 경희궁길 42 (신문로2가, 성곡미술관)",37.5731157,126.9697643,02-737-7650,"전시,예술,독일현대사진전,성곡미술관,미술관,문화,미술,종로미술관",0.010047761,11,1.5
98,1912,서울시민 광나루안전체험관,"04991 서울 광진구 능동로 238 (능동, 서울시민안전체험관광나루)",37.5512329,127.0770992,02-2049-4061,"서울능동,안전,서울시민광나루안전체험관,서울시민안전체험관,무료안전교육,체험관,서울아이들과가볼만한곳",0.099675163,54,16.2
99,1914,여의도 한강공원 수영장,07337 서울특별시 영등포구 여의동로 330 한강사업본부 여의도안내센터,37.5263086,126.9335824,02-785-0478,"여의도한강공원수영장,한강시민공원수영장,여의나루역,수영장,한강공원,여의도야외수영장,레저,여의도",0.062651281,38,8.3
100,1919,명보아트홀,100-300 서울특별시 중구 마른내로 47 (초동),37.5646936,126.9931903,02-2274-2121,"예술,을지로3가역,명보시네마,공연장,충무로역, 문화,실버극장,명보아트시네마,명보극장,명보아트홀",0.014857566,8,1.9
101,1932,순라길,03134 서울시 종로구 서순라길 161 (권농동) 일대,37.57734,126.991769,02-120,"문화,문화공간,순라길,종로홍어삼합,순라길홍어,역사문학탐방로,종로순라길,서울홍어삼합",0.01497666,11,2.3
102,1943,용마폭포공원,"02257 서울 중랑구 용마산로 250-12 (면목동, 용마폭포공원관리사무소)",37.5728192,127.0911912,02-2094-2342,"용마산역,용마폭포공원,책깨비,공원,중랑구가볼만한곳,폭포, 자연,용마산인공폭포",0.11215591,52,13.7
103,1951,보라매 암벽등반장,07062 서울 동작구 보라매로5길 28 동작구민회관,37.494048,126.922731,010-4733-4496,"서울암벽등반,건강,힘쎈여자도봉순,신대방역,공원,보라매공원,보라매암벽등반장,보라매역",0.094073082,92,24.7
104,1955,풍납토성,05512 서울특별시 송파구 한가람로20길 30 (풍납동),37.5386414,127.1208838,02-2147-2800,"역사,풍납토성,한강유적,천호역,한강,백제풍납토성,유적지",0.145087183,70,21.2
105,1958,전기박물관,"06732 서울 서초구 효령로72길 60 (서초동, 한전아트센터)",37.4856845,127.0280225,02-2105-8190,"전기박물관,한국전력공사,양재역,전시,체험,한전아트센터,박물관,역사",0.09694347,86,24.5
106,1961,겸재정선미술관,"07522 서울 강서구 양천로47길 36 (가양동, 겸재정선미술관)",37.5722129,126.8384499,02-2659-2206,"진경산수화,문화, 미술관,산수도,겸재정선,귀거래도,겸재정선기념관,겸재정선미술관",0.140667104,70,17.8
107,1962,생각꿈틀미술관,06780 서울 서초구 강남대로 279 아가월드 6층,37.48817,127.031896,02-578-0270,"양재동미술관,언남고등학교,언남문화체육센터,문화,생각꿈틀미술관,미술관,체험학습,전시",0.11640669,85,24.3
108,1965,국립서울현충원,"06984 서울 동작구 현충로 210 (동작동, 국립현충원)",37.5005926,126.9726373,02-813-9625,"동작동,무용용사탑,유적지,현충원,역사, 충렬대,동작역,국립현충원,현충관,현충일, 전쟁박물관,역사",0.069080569,48,11.1
110,1981,중랑천 제방,서울특별시 중랑구 면목동 일대,37.5811454,127.0883961,02-938-9520~1,"하천,장미터널,서울벚꽃,중랑천, 자연,서울장미축제,봄꽃축제,동대문축제,중랑천제방",0.109940095,45,14
111,1995,궁중음식연구원,"03051 서울특별시 종로구 창덕궁5길 16, 궁중음식연구원 (원서동)",37.5835607,126.9892457,02-3673-1122,"전통음식,문화,연구원,궁중음식,궁중음식강좌,전통음식강좌,궁중음식연구원",0.017450268,13,2.7
112,1999,흥인지문(동대문),"03119 서울 종로구 종로 288 (종로6가, 흥인지문)",37.5711389,127.0095452,02-731-0412,"동대문,역사,흥인지문,서울야경,동대문야시장,어스아워,동대문역,유적지",0.030508149,15,3.4
113,2010,안동교회,03061 서울 종로구 윤보선길 57 (안동교회),37.5783667,126.9831632,02-733-3395,"안동교회소허당,문화,문화공간,북촌교회,종로구안국동,안동교회,교회",0.009875324,12,2.2
114,2012,경인미술관,03146 서울특별시 종로구 인사동10길 11-4 (관훈동),37.5745581,126.9856232,02-733-4448,"관훈동,안국역,한국문화,전시,미술,경인미술관,문화,미술관",0.00834313,7,1.3
115,2021,화계사,"01095 서울 강북구 화계사길 117 (수유동, 화계사)",37.6326445,127.0073066,02-902-2663,"불교,수유역,절,사찰, 흥선대원군, 화계사,템플스테이",0.069280375,87,24.8
116,2027,허준근린공원,"07525 서울 강서구 허준로5길 42 (가양동, 구암공원관리사무실)",37.5723456,126.8414638,02-2600-4112,"허준공원,가양역,허준기념공원,동의보감,강서구공원,공원,테마공원,허준,문화,구암공원",0.137656636,63,16.3
117,2029,홍릉숲,"02455 서울 동대문구 회기로 57 (청량리동, 국립산림과학원)",37.5930966,127.0436564,02-961-2551,"홍릉숲,홍릉시험림,자연,홍릉숲탐방,수목원,홍릉수목원",0.068789021,33,8.4
118,2030,대한성공회서울주교좌성당(서울성공회성당),서울특별시 중구 세종대로21길 15 (정동),37.5671299,126.9760517,02-730-6611,"서울가볼만한곳,서울대성당,성당,대한성공회,서울성공회성당,서울주교좌성당, 종교,대한성공회서울주교좌성당,서울여행",0.00377423,7,1.1
119,2039,떡박물관,"03132 서울 종로구 돈화문로 71 (와룡동, 떡박물관)",37.5748578,126.990624,02-741-5447,"전통,체험관,떡만들기체험,전통식문화체험,박물관,떡박물관,전통체험,종로3가역",0.01277396,11,2.3
120,2049,덕수궁,04519 서울 중구 세종대로 99,37.5658705,126.9750079,02-771-9951,"시청역,석조전,국립현대미술관,궁,무한도전,서울시청,덕수궁,덕수궁야간개장,숭례문,역사,시민청",0.005376362,6,1.2
121,2052,하늘물빛 전통 천연 염색 연구소,03051 서울 종로구 창덕궁5길 8 (원서동),37.5831764,126.9892821,02-765-9970,"공방,전통문화체험,염색,하늘물빛,북촌문화센터,북촌한옥마을,전통천연염색연구소,천연염색",0.017160838,16,2.4
122,2060,선유교,"07200 서울 영등포구 선유로 343 (당산동, 선유도공원)",37.5437229,126.8997207,02-2631-9368,"서울벚꽃,양화대교,선유도공원,서울선유도,다리,생태공원,시간의정원,선유교",0.08340897,47,11.1
123,2066,김종영 미술관,03004 서울특별시 종로구 평창32길 30 (평창동),37.6129249,126.9775735,02-3217-6484,"미술관,광화문역,문화,길음역,경복궁역,전시,갤러리,김종영갤러리,김종영",0.043579935,50,7.8
124,2084,가나아트센터,03004 서울 종로구 평창30길 28 (가나아트센타),37.6121861,126.9750972,02-720-1020,"종로갤러리,예술,윤종석,가나아트센터,경복궁역,미술관,심상풍경,김종구,문화",0.043000418,48,7.5
125,2087,마로니에공원,03087 서울 종로구 대학로 104 (동숭동),37.5804885,127.0024063,02-2148-1114,"혜화역,마로니에공원,대학로,공원,문화,아르코-예술극장",0.025832562,16,3.6
126,2100,망우리공원,02180 서울특별시 중랑구 망우로70길 64-8 (망우동),37.5958179,127.1032459,02-2094-2344,"망우리공원묘지,망우산,역사,망우리공원,연보비,상봉역,산책로,공원",0.126943028,76,19.2
127,2101,서울월드컵경기장,03932 서울특별시 마포구 월드컵로 240 (성산동) 월드컵주경기장,37.5682588,126.8972774,-4138,"문화공간,월드컵전시관,경기장,레저,서울월드컵경기장,상암월드컵경기장,체육시설,월드컵경기장역",0.081818464,44,11.5
128,2107,대학로,서울특별시 종로구 혜화로 12,37.5897083,127.0002449,02-2148-1812,"서울데이트코스,동승동,테마거리,문화,혜화역,이화동,대학로,명륜동, 문화공간,혜화동,연건동",0.029346129,16,3.4
129,2119,월드컵공원,03900 서울특별시 마포구 하늘공원로 108-1,37.5637561,126.9084211,02-300-5500,"하늘공원,서울공원데이트,난지한강공원,자연,노을공원,공원,평화의공원,난지천공원,상암월드컵공원,월드컵공원",0.07088994,47,12.5
130,2121,삼청동 골목길,서울특별시 종로구 가회동 일대,37.5800055,126.9846912,02-120,"삼청동길,경복궁돌담길,가회동,삼청공원,삼청동골목길,북촌, 문화,문화공간",0.012019929,10,1.9
131,2126,한강 이랜드크루즈,"07337 서울 영등포구 여의동로 280 (여의도동, 진성나루)",37.5287832,126.9357239,02-6291-6900,"하천,한강이랜드크루즈,자연,이랜드크루즈애슐리,이랜드크루즈뷔페,런닝맨,한강데이트,한강유람선,이랜드크루즈",0.059395834,39,8.7
132,2130,고덕 수변생태공원,서울특별시 강동구 고덕동 374-1 일대,37.5708723,127.156129,02-426-0755,"자연,한강,한강라이딩,서울산책,서울운전연습,잠실,고덕수변생태공원",0.177047063,86,25.9
133,2134,정동제일교회,04516 서울특별시 중구 정동길 46 (정동),37.5652468,126.97249,02-753-0001~3,"정동제일교회,한국최초교회,정동교회,종교,교회,성지",0.007781328,7,1.5
134,2139,올림픽공원,"05540 서울 송파구 올림픽로 424 (방이동, 올림픽공원)",37.5206868,127.1214941,02-410-1114,"잠실,들꽃마루,장미축제,뮤즈인시티페스티벌,나홀로나무,올림픽공원,체조경기장,올리브푸드페스티벌",0.150497815,72,21.7
135,2158,양재 시민의 숲,06773 서울특별시 서초구 매헌로 99 (양재동),37.4712172,127.0367358,02-575-3895,"공원,산책로,시민의숲,단풍명소,서울벚꽃,자전거,매헌윤봉길의사,서울데이트,자연,양재시민의숲,바베큐장",0.113830846,78,23.9
136,2161,여의도 공원,"07243 서울 영등포구 여의공원로 68 (여의도동, 여의도공원관리사무소)",37.523816,126.918916,02-761-4078,"여의도역,밤도깨비야시장,여의도공원,공원,산책로,서울야시장,여의나루역,서울밤도깨비시장, 문화",0.07547179,38,8.2
137,2175,암사동선사유적박물관,05239 서울 강동구 올림픽로 875 (서울 암사동 유적),37.5605739,127.1308674,02-3425-6520,"유적지,선사유적지,역사,암사동선사주거지,전시,관광지,암사역",0.152033843,88,23.5
138,2189,보라매공원,"07062 서울 동작구 여의대방로20길 33 (신대방동, 보라매공원)",37.4932343,126.9197115,02-2181-1190,"보라매역,보라매암벽등반장,보라매역,보라매공원,신대방역,공원,문화,신대방역,쉼터",0.096552821,93,24.8
139,2193,롯데월드 어드벤처,05554 서울특별시 송파구 올림픽로 240 (잠실동),37.5078953,127.0861619,02-1661-2000,"롯데월드전망대,매직패스,테마파크,롯데월드어드벤처,문화,롯데월드,불꽃놀이,롯데월드어드벤쳐,매직아일랜드",0.123466815,64,19.4
140,2210,몽촌토성,05540 서울특별시 송파구 올림픽로 424 (방이동),37.5206868,127.1214941,02-2147-2814,"몽촌토성역,몽촌역사관,잠실올림픽공원,올림픽공원,역사,유적지,몽촌토성역,몽촌토성",0.150497815,72,21
141,2220,반포대교 달빛무지개분수,"06500 서울 서초구 동작대로 350 (반포동, 동작대교 전망카페)",37.505914,126.9809672,02-3780-0578,"러브블라썸크루즈,반포대교달빛무지개분수,한강야경,세계최장교량분수,반포대교음악분수,한강데이트,분수,반포대교분수쇼, 조형",0.06348511,50,15.8
142,2230,까델루포,03042 서울특별시 종로구 자하문로16길 5-5 (효자동),37.5817921,126.9714078,02-734-5233,"이재훈셰프,한옥 레스토랑,이탈리안 요리,까델루포,맛집,효자동,서촌맛집,까델루뽀",0.014603642,14,2.3
143,2233,테크노마트,05116 서울 광진구 광나루로56길 85 (구의동 546-4),37.5351173,127.0957751,02-3424-0114,"강변쇼핑몰,쇼핑몰,강변역,강변테크노마트,테크노마트,신도림테크노마트,신도림,쇼핑,동서울",0.121610632,63,18.5
144,2247,갤러리팩토리,03043 서울 종로구 자하문로10길 15,37.5794796,126.9723986,02-733-4883,"갤러리팩토리,통인시장,팩토리,서촌갤러리,종로구창성동,경복궁,갤러리,서촌마을",0.012121461,12,2
145,2250,영학정,07990 서울 양천구 목동동로 316-8 (영학정),37.5286789,126.8785006,010-5234-2322,"양궁장,정자,오목교,영학정,자연,활쏘기체험,양천구,산책로,목동양궁",0.108506944,66,17.1
146,2252,일민미술관,"03187 서울 종로구 세종대로 152 (세종로, 일민미술관)",37.569784,126.977664,02-2020-2050,"광화문이마,예술,전시,일민미술관이마,미술관,광화문,광화문카페,광화문카페이마,일민미술관,카페이마,문화",0.001482886,5,0.532
147,2256,정보소극장,"03086 서울특별시 종로구 대학로12길 38, 정보빌딩 1층 (동숭동)",37.582443,127.0037038,02-3673-0554,"문화,대학로,공연장,공연장,대학로정보소극장,정보소극장,나의PS파트너,예술",0.027870992,18,4
148,2257,불광천(신응교),서울은평구불광동서대문구북가좌동일대,37.592323,126.914347,NA,"서울벚꽃,봄나들이,벚꽃축제,불광천,불광사,불광천벚꽃,서울산책로,하천,산책로,건강",0.068689275,53,14.6
149,2263,감로천 생태공원,"08556 서울 금천구 독산로54길 188 (독산동, 금천구민문화체육센터)",37.4700176,126.907368,02-2627-2395,"산책로,금천구독산동,금천구민문화체육센터,공원,감로천생태공원,서울생태공원,자연",0.122535542,100,24.8
150,2269,고척근린공원,"08239 서울 구로구 고척로45길 31 (고척동, 고척시립도서관)",37.5053648,126.853141,02-2619-6640,"공원,구로구민체육센터,자연,산책로,문화,고척시립도서관,개봉역,고척근린공원",0.141278287,88,22.6
151,2275,서울시민천문대,01779 서울 노원구 동일로 동일로 205길 13 서울영어과학교육센터/서울시민천문대,37.640684,127.0651902,02-971-6232,"영어체험,우주인이소연,문화,공원,서울영어과학교육센터,영어과학체험공원,영어과학공원,과학체험",0.111799098,68,21
152,2285,국립현대미술관 창동레지던시,01469 서울특별시 도봉구 덕릉로 257 (창동) 창동레지던시,37.6406935,127.0394059,02-995-0995,"예술,미술,창동미술창작스튜디오,미술관,국립현대미술관창동레지던시,전시,문화체육관광부,문화",0.093408078,70,21.8
153,2287,홍제천,"120-090 서울특별시 서대문구 홍제동 종로구, 서대문구, 마포구 일대",37.5876438,126.9514202,02-330-1792,"서대문,무한도전,홍제천,산책로,자연,홍제천축제,하천,홍제천분수,홍제천자전거",0.033157322,31,6.8
156,2302,불광천 해담는다리,03680 서울 서대문구 불광천길 156,37.5820599,126.9091092,02-120,"다리,자연,북가좌동,증산역,산책로,불광천해담는다리,교각",0.071120145,49,13.3
157,2358,관훈동 민씨 가옥,"04626 서울 중구 퇴계로34길 28 (필동2가, 남산골한옥마을)",37.559315,126.994477,02-2264-4412,"서울한옥마을,남산골한옥마을,관훈동민씨가옥,전통혼례,유적지,전통문화체험,역사,서울여행지",0.018383179,12,2.4
158,2372,살곶이다리,서울특별시성동구행당동 58,37.55451,127.045987,02-2286-5204,"한강산책코스,산책로,유적지,살곶이다리,역사,서울산책코스,전곶교,교각,최장교,살곶이체육공원",0.068529514,28,8.7
159,2388,아라리오 갤러리 서울,03053 서울특별시 종로구 북촌로5길 84 (소격동),37.5800697,126.9803914,02-541-5701,"아라리오 서울 갤러리,종로미술관,갤러리,문화,예술,전시,미술관,미술,종로갤러리,화랑,아라리오갤러리",0.010777469,11,2
160,2395,세검정,03018 서울특별시 종로구 세검정로 244 (세검정),37.6008534,126.9596905,02-731-0412,"종로구신영동,자연,인조반정,종로구세검정, 유적지,세검정,북한산성",0.036978335,32,5.3
161,2406,아트선재센터,"03062 서울 종로구 율곡로3길 87 (소격동, 아트선재센타)",37.5794981,126.9819725,02-733-8949,"아트선재센터,행위예술,전시,미술관,관광지,예술,음악회,안국역,문화",0.010529515,10,1.8
162,2429,탄천양재천 방문자센터,서울특별시서초구양재1동바우뫼로,37.4985256,127.0732684,02-2155-7153,"산책로,탄천운동장,하천, 양재천&탄천,자연,양재천벚꽃,양재천카페거리,강남벚꽃,양재천산책로",0.105689704,61,18.6
163,2435,연세대학교 스팀슨관,03722 서울특별시 서대문구 연세로 50 (신촌동),37.564089,126.9389809,02-2123-2114,"연세대신촌캠퍼스,신촌,서울벚꽃명소,연세로,유적지,연희전문학교,역사,스팀슨관&언더우드관&아펜젤러관",0.040453754,27,4.8
164,2447,충무아트센터,"04569 서울 중구 퇴계로 387 (흥인동, 충무아트센터)",37.5660165,127.014653,02-2230-6600,"동대문역사문화공원역,공연,문화,예술,충무아트홀, 공연장,충무아트센터",0.035722578,14,3.9
165,2482,이화장(梨花莊),03088 서울특별시 종로구 이화장1길 32 (이화동),37.5782394,127.0063422,02-741-0815,"종로구이화동,이승만기념관,이승만대통령,역사,유적지기념관,이화장",0.028660395,21,3.8
166,2545,방이동 백제고분군,05644 서울특별시 송파구 오금로 219 (방이동),37.5076341,127.1219307,02-2147-2012,"방이동고분,삼국시대고분군,백제고분,서울유적지,문화유적,유적지,역사,방이동백제고분군",0.155613088,84,24.4
167,2587,조계사,03144 서울특별시 종로구 우정국로 55 (조계사),37.5743716,126.9826498,02-768-8600,"종로구조계사,조계사,사찰,서울템플스테이,서울조계사,유형문화재,종교,절,목불좌상,혜능대사",0.006138997,8,1.3
168,2615,서대문자연사박물관,03718 서울특별시 서대문구 연희로32길 51 (연희동),37.5766913,126.9378364,02-330-8899,"연희동,전시,역사,유물,서대문자연사박물관,박물관,문화재,서대문박물관,주말에가볼만한곳,아이와가볼만한곳",0.04189632,36,6.1
169,2637,춘원당 한방박물관,03139 서울 종로구 돈화문로9길 27 (춘원당한방박물관),37.5717844,126.9903293,02-3672-2005,"박물관,춘원당한방박물관,유물,전통,춘원당한의원,춘원당,전시,종로구낙원동,한방",0.011497092,8,1.6
170,2643,잠실야구장,138-220 서울특별시 송파구 올림픽로 25 (잠실동),37.5122579,127.0719011,02-2202-3834,"경기장,두산베어스,잠실야구장,LG트윈스,잠실야구경기장,레저,잠실종합운동장,프로야구",0.108977779,62,18.4
171,2723,서울역사박물관,"03177 서울 종로구 새문안로 55 (신문로2가, 서울역사박물관)",37.5704837,126.9705674,02-724-0274,"서대문역,광화문역,서울역사,박물관,토요배리어프리영화관,경희궁,역사,서울박물관,서울역사박물관",0.008593205,9,1.4
172,2730,한국은행화폐박물관,"100-794 서울특별시 중구 남대문로 39, 한국은행건물 (남대문로3가)",37.5619687,126.9803334,02-759-4881,"박물관, 한국은행화폐박물관,전시,한국은행,역사",0.007506581,8,1.5
173,2768,서울극장,"03192 서울 종로구 돈화문로 13 (관수동, 서울극장)",37.5697471,126.9916915,02-2269-2700,"종로,갤러리1964,종로영화관,서울아트시네마,서울극장,문화,극장",0.012608802,8,1.7
174,2789,문래동 예술촌,150-093 서울특별시 영등포구 도림로128가길 13-8,37.5141744,126.8976792,02-120,"문화,문래예술촌,문래동창작촌,문래예술공장,문화공간,문래창작촌,문래동예술촌,문래동카페,문래동맛집",0.098357203,76,20
175,2802,워커힐 카지노,"04963 서울 광진구 워커힐로 177 (광장동, 그랜드워커힐서울)",37.5552126,127.1108905,"02-450-4830,4826","바라카,워커힐카지노,룰렛, 슬롯머신,워커힐호텔,그랜드워커힐, 블랙잭,그랜드워커힐서울,카지노,포커게임,파라다이스카지노",0.13256051,74,20.9
176,2841,망원 한강공원,04005 서울특별시 마포구 마포나루길 467 (망원동) 한강공원망원지구사무소,37.5557262,126.8945702,02-3780-0601,"합정역,합정한강,건강,한강공원망원지구,한강벚꽃,마포구청역,공원,망리단길,망원동데이트코스,망원한강공원",0.085612487,44,10.7
178,2885,PKM갤러리,"03049 서울 종로구 삼청로7길 40 (삼청동, 피케이엠 갤러리)",37.5840393,126.9801337,02-734-9467,"PKM가든카페,예술,삼청동갤러리,전시,삼청동카페,문화,화랑,갤러리,삼청동,PKM갤러리,삼청동전시회,미술관",0.014705206,14,2.2
179,2909,잠원 한강공원,06513 서울특별시 서초구 잠원로 221-124 (잠원동) 한강공원잠원안내센터,37.5277524,127.01948,02-3780-0531,"건강,가로수길한강,신사역한강,잠원한강공원,압구정한강,한강공원잠원지구,공원,잠원벚꽃,서울데이트코스",0.057996744,58,18.6
180,2925,국기원,"06130 서울 강남구 테헤란로7길 32 (역삼동, 국기원)",37.5019603,127.030244,02-567-1058,"국기원, 전통,무예,세계태권도본부,경기장,태권도,국기원품단전환,국기원단증,문화유산,태권도단증",0.08462357,74,20.5
181,2930,KT스퀘어,"110-777 서울특별시 종로구 세종대로 178, KT광화문지사 1층 (세종로)",37.5721452,126.9778305,1577-5599,"문화공간,KT스퀘어,광화문,올레스퀘어,광화문올레스퀘어,올레스퀘어공연,KT올레스퀘어,문화",0.003045748,6,0.834
182,2940,하얏트 아이스링크,"04347 서울 용산구 소월로 322 (한남동, 하얏트호텔)",37.5393346,126.9972683,02-797-1234,"레저,아이스링크,서울스케이트장,스케이트장,하얏트아이스링크,스케이트",0.035110052,32,5.4
183,2962,고려대학교 본관 ,"02841 서울 성북구 안암로 145 (안암동5가, 고려대학교안암캠퍼스)",37.590799,127.0277773,02-3290-1114,"유적지,고려대학교안암캠퍼스,고려대학교중앙도서관,역사,고려대학교본관 및 구중앙도서관,성북구안암동",0.053195536,29,6.6
184,2973,국립극장,"04621 서울 중구 장충단로 59 (장충동2가, 국립극장)",37.5525561,126.9996092,02-2280-4114,"문화,극장,남산,국립극장,영화,공연장,동대입구역,공연",0.026530328,27,5
185,3008,낙성대 공원,"08799 서울 관악구 낙성대로 77 (봉천동, 낙성대공원)",37.4711007,126.95999,02-879-6519,"낙성대공원도서관,공원,역사,서울데이트,낙성대둘레길,산책로,낙성대공원,낙성대가볼만한곳,낙성대볼거리,강감찬동상",0.10010922,115,29.2
186,3085,토탈미술관,03004 서울 종로구 평창32길 8,37.6120334,126.9756591,02-379-7037,"길음역,예술,토탈미술관, 미술관,아트숍, 문화,공연,경복궁역,전시",0.042799698,49,7.6
187,3095,결련택견협회,03164 서울 종로구 삼일대로 407 (인사동),37.5716555,126.9862326,02-733-2469,"인사동,인사동문화마당,결련택견, 경기장,송덕기,택견,결련택견중앙본부전수관,레저,택견공연,무형문화재",0.007500573,7,1.1
188,3100,금호미술관,"03062 서울 종로구 삼청로 18 (사간동, 금호미술관)",37.5774224,126.9798857,02-720-5114,"경복궁역,전시,광화문역,금호미술관,미술관,안국역,문화,예술",0.008090492,9,1.3
189,3136,종로 청운공원,서울시종로구창의문로 119 (청운동),37.607361,126.963951,NA,"자연,공원,서울드라이브코스,드라마촬영지,윤동주시인의언덕,인왕산,인현왕후의남자,청운공원,서울해맞이명소",0.040894439,27,3.6
191,3177,성균관대학교 명륜당,110-812 서울특별시 종로구 성균관로 25-1,37.5849663,126.9970522,02-760-1472,"역사,성균관대학교인문사회과학캠퍼스,성균관명륜당,종로구명륜동,명륜당,명륜당은행나무,성균관대학교,유적지",0.023788773,20,4.1
351,11849,루카511,"06010 서울 강남구 도산대로81길 40 (청담동, LUKE511빌딩)",37.5269781,127.0468712,02-540-6640,"청담동,김수현,청담동핫플레이스,명품거리,청담루카511,별에서온그대,맛집,청담동레스토랑,드라마촬영지,레스토랑,루카511",0.079948139,59,17.1
354,11883,정샘물 인스피레이션,"06016 청담WEST점 : 서울 강남구 도산대로63길 15 (청담동, 아베다빌딩) 청담EAST점 : 서울 강남구 도산대로81길 57",37.527251,127.0452963,02-518-8100,"미용,청담동-뷰티-살롱-문화,메이크업,정샘물-인스피레이션,헤어-메이크업-스킨케어-네일-웨딩,K-beauty,뷰티,정샘물",0.078470497,53,15.6
355,11897,국립국악박물관,"06757 서울 서초구 남부순환로 2364 (서초동, 국립국악원)",37.4777592,127.0083043,02-580-3300,"국립국악박물관,국악,서초동,박물관,공연,역사,관광지,국립국악원,전시",0.096157951,78,21.2
358,11923,그레뱅 뮤지엄,"04523 서울 중구 을지로 23 (을지로1가, 을지로별관)",37.5662585,126.9804555,02-777-4700,"이색데이트,밀랍인형박물관,한류관광지,을지로입구박물관,그레뱅 뮤지엄,서울데이트코스,빅뱅,한류스타,박물관,아이들과가볼만한곳,명동박물관,문화, 밀랍인형",0.003399818,4,0.935
362,11992,서초관광정보센터,"06615 서울 서초구 강남대로 399 (서초동, 몬테소리)",37.4982126,127.0268238,02-3478-1261,"관광정보,서초관광정보센터,강남역사거리,의료관광,강남역",0.085686863,68,20.4
367,12080,음악의 숲,04561 서울특별시 중구 을지로44길 17-7 (광희동1가),37.5652238,127.0068626,02-2274-2254,"영화써니,써니촬영장소, 복고풍, 데이트장소,동대문역사문화공원역,서촌카페,카페,커피숍,음악의숲",0.028082263,73,21.5
372,12211,와인북카페,06040 서울특별시 강남구 논현로149길 5 (논현동),37.5184985,127.0279857,02-549-0490,"이탈리아음식,이민호,논현동맛집,압구정,와인바,와인북카페,강남",0.070562012,66,20.1
373,12226,어라운드더코너 가로수길점,06028 서울특별시 강남구 압구정로12길 24 (신사동),37.5223299,127.0224459,02-545-5325,"어라운드더코너 가로수길점,신사역,한류 패션,의류편집매장,쇼핑,의류쇼핑",0.063974798,61,19.4
374,12282,놋그릇가지런히 놋이,03036 서울특별시 종로구 자하문로13길 3 (통인동),37.5799281,126.9709206,02-736-6262,"서촌카페,서촌한식,유기,종로,놋이,놋그릇,통인동,서촌,한식디저트",0.01334756,105,35
378,12469,스타일난다 홍대플래그십스토어,04053 서울특별시 마포구 와우산로29다길 23 (서교동),37.554642,126.9275229,02-333-9215,"스타일난다,스타일난다오프라인,여성의류,Stylenanda,홍대,홍대쇼핑,홍대스타일난다",0.053627817,31,6.3
379,12498,메이필드 호텔,07506 서울특별시 강서구 방화대로 94 (외발산동),37.5475247,126.8187885,02-2660-9000,"강서구호텔,뷔페,5월의정원,메이필드호텔,메이필드,연회장",0.161781642,85,21.7
380,12561,카페 로쏘 종로,03054 서울 종로구 삼청로 81-12,37.582836,126.9812357,02-722-2622,"핸드드립커피,초코케이크,삼청동,삼청동카페로쏘,로쏘,커피숍,오렌지케이크,카페",0.013634862,12,2
381,12596,자유통일문화원,03036 서울 종로구 자하문로13길 4-9 (통인동),37.5804518,126.9707447,02-722-8254,"문화체험,전통문화체험,사단법인,종로,전통문화원,예절교육",0.013870585,8,1.4
382,12711,핫트랙스 영등포점,07305 서울 영등포구 영중로 15 (타임스퀘어) 2층 교보문고 핫트랙스,37.5170529,126.9027662,02-2678-9961,"교보문고,교보문고핫트랙스, 타임스퀘어,영등포,타임스퀘어핫트랙스,핫트랙스",0.092532578,55,12.2
383,12776,용산전자랜드신관,04372 서울특별시 용산구 청파로 74 (한강로3가),37.5290923,126.9606764,02-707-4700,"용산전자랜드,전자상가,용산역,용산롯데시네마, 전자제품,용산전자상가",0.04428765,27,5.8
384,12816,남영볼링센터,04417 서울 용산구 한남대로 130 (볼보빌딩) 지하 2층,37.5398888,127.0044592,02-798-8816,"한류스타,한남볼링센터,한남동,락볼링장,한남동볼링장,한강진볼링장,이태원볼링장",0.03889602,17,3.9
385,12836,SJYP 가로수길점,06028 서울 강남구 강남대로160길 45 1층 SJYP 가로수길점,37.5206456,127.0223038,070-7730-4567,"디자이너,스티브요니,스티브제이앤요니피,SJYP,패션브랜드",0.065128897,63,19.9
386,12993,여의도한강공원,07231 서울 영등포구 여의도동 85,37.533714,126.919748,NA,"소녀시대숲,여의도,공원, 한강공원,여의나루역,숲조성프로젝트,트리플래닛",0.069229432,38,8.2
388,15060,여의도공원,07243 서울 영등포구 여의공원로 68,37.5268082,126.9223229,(주) 02-120 (야) 3780-0777,"한강축제,한강놀거리,한류,서울경치,런닝맨,한강공원,한강,한강캠핑장,크루즈,도깨비야시장,수영장",0.070950181,38,8.2
389,15338,주교좌 명동대성당,"04537 서울 중구 명동길 74 (명동2가, 명동성당)",37.563177,126.9873604,02-774-1784,"명동대성당,부활절,복합문화공간,명동나들이,명동성당,서울가볼만한곳,1898,명동서점",0.010334263,8,1.5
390,15400,MBC월드,"03925 서울 마포구 성암로 267 (상암동, (주)문화방송)",37.5813237,126.8912567,"02-789-3705, 3706","KPOP,쇼음악중심,상암동,한류,한류스타,KPOPSTAR,테마파크,예능프로그램,MBC월드,글로벌미디어센터,한류관광,무한도전,MBC",0.088641129,52,13.4
391,15401,SMTOWN 코엑스 아티움,06164 서울 강남구 삼성동 159-9,37.5130556,127.0586111,2F SMTOWN GIFTSHOP 02-6002-5811<br>4F SMTOWN CAFE 02-6002-5838<br>5F THEATRE 1670-6330,"코엑스아티움,소녀시대,동방신기,NCT,샤이니,SM엔터테인먼트,한류스타,에프엑스,슈퍼주니어,보아,SMTOWN,K-pop,아티움,레드벨벳,한류스타운영명소,EXO",0.097444003,62,18
393,15850,세빛섬,06500 서울 서초구 올림픽대로 683 (반포동),37.5117125,126.994887,1566-3433,"한류관광,어벤져스2,아테나,최시원,인공섬,야경,세빛섬,한류,정우성,그녀는예뻤다",0.059784079,50,15.9
394,15855,KBS 본사,07235 서울 영등포구 여의공원로 13 ,37.5256143,126.9164678,02-781-1000,"김수현,방송국,스튜디오,KBS,방송체험,견학,한류관광,한류,방송촬영,라디오생방송",0.076393731,44,9.8
395,15863,피규어뮤지엄W,"06014 서울 강남구 선릉로158길 3 (청담동, Ys Roo)",37.5255886,127.0411024,02-512-8865,"임시완,한류관광,피규어,박물관,디오,고소영,오마이비너스,소지섭,이광수,엑소,이종석,피규어뮤지엄w,키덜트,신민아,한류",0.075912274,59,17.2
398,16320,낙산공원,03085 서울특별시 종로구 낙산길 41,37.5807709,127.0064081,02-2148-2843,"낙산공원,서울야경명소,한양도성, 그녀는예뻤다,낙산공원성곽길,상속자들,낙산공원벚꽃,서울야경,이민호",0.029602742,25,4
399,16321,남산서울타워,"04340 서울 용산구 남산공원길 105 (용산동2가, YTN서울타워)",37.5511694,126.9882266,02-3455-9277 / 9288,"랜드마크,전망대,N서울타워,드라마촬영지,야경,남산,남산서울타워",0.020367074,48,7
400,16322,하늘공원,"03900 서울 마포구 하늘공원로 95 (상암동, 탐방객안내소)",37.5750891,126.8894528,02-300-5500,"무한도전,난지천공원,상암데이트,상암하늘공원,야경,월드컵공원,평화의공원,하늘공원,노을공원,억새축제",0.089817683,61,14.7
402,16324,북악산,03010 서울 종로구 부암동,37.5962608,126.9676991,NA,"북악산,야경,북악산성곽길,서울드라이브코스,북악스카이웨이,팔각정,북악산둘레길",0.029202039,39,4.8
403,16325,반포대교,서울특별시용산구서빙고동,37.517263,126.995644,NA,"달빛무지개분수,반포대교야경,서울야경,반포대교,반포무지개분수,세빛섬,야경",0.054675096,50,16
404,16326,매봉산,서울특별시중구신당동산51,37.545204,127.007601,NA,"한강진역,한강야경,버티고개역,야경,매봉산,옥수역,서울야경,한강,남산공원,쌈지공원",0.037376897,39,5.9
405,16327,선유도공원,"07200 서울 영등포구 선유로 343 (당산동, 선유도공원)",37.5437229,126.8997207,02-2631-9368,"양화철교,양화한강공원,선유도공원,선유도, 국회의사당,선유도역,여의도,야경,서울데이트코스,선유도벚꽃",0.08340897,48,11.1
406,16328, 송파나루공원 서울놀이마당,05608 서울 송파구 삼학사로 136 (잠실동),37.5092404,127.0991543,02-2147-3854,"잠실,벚꽃축제,백조,매직아일랜드,롯데월드,제2롯데월드,석촌호수,야경",0.13428168,68,20.2
407,16792,국립현대미술관 서울관,03062 서울 종로구 삼청로 30 (소격동) 국립현대미술관,37.5794091,126.9803691,02-3701-9870,"아트,갤러리아트존, 갤러리,현대자동차,전시,국립현대미술관,예술,국립현대미술관아트존,미술관,국립현대미술관서울관",0.010119184,10,1.5
413,18892,리기태전통연공방,03051 서울 종로구 창덕궁5길 4 (원서동),37.5829925,126.9892812,<U+200B>02-720-4114,"북촌,북촌한옥마을,전통연,전통연공방,안국역,서울관광,리기태전통연공방,한국연협회,서울여행",0.01701271,13,2.6
416,18897,금박연,03056 서울 종로구 북촌로12길 24-12 (가회동),37.5825812,126.9861789,02-730-2067,"금박연,전통체험,북촌한옥마을,북촌,서울여행,서울관광,안국역",0.0149926,14,2.4
417,18898,동림매듭공방,03056 서울 종로구 북촌로12길 10 (가회동),37.5817446,126.9856027,02-3673-2778,"서울관광,북촌한옥마을,동림매듭박물관,안국역,동림매듭공방,서울여행,북촌,전통체험",0.013983417,13,2.3
418,18899,우리빛깔공방,03052 서울 종로구 북촌로11가길 14 (가회동),37.5822357,126.9840415,02-730-3044,"서울여행,안국역,전통체험,우리빛깔공방,한국전통,서울관광,북촌,북촌한옥마을",0.013785027,14,2.5
420,18902,북촌전통공예체험관,03056 서울 종로구 북촌로12길 24-5 (가회동),37.5824447,126.9860245,02-741-2148,"한국전통,관광지,안국역,전통공예,서울여행,체험관,전통공예체험관,서울관광,북촌한옥마을,북촌",0.014799482,14,2.4
423,18912,가회민화박물관,03056 서울 종로구 북촌로 52 (가회동) 가회민화박물관,37.5814333,126.9852322,02-741-0466,"북촌,가회민화박물관,민화,서울여행,서울관광,박물관,관광지,북촌한옥마을,안국역",0.013536593,12,2.2
425,18916,북촌문화센터,03059 서울 종로구 계동길 37 (계동),37.5790313,126.9864082,"02-2133-1371, 1372","북촌,관광지,북촌문화센터,서울관광,서울여행,안국역,북촌한옥마을",0.012120088,11,2
426,18918,북촌상회,03059 서울 종로구 계동길 37 (계동),37.5790313,126.9864082,02-743-1470,"서울여행,북촌상회,북촌한옥마을,관광지,한국전통,서울관광,북촌,안국역",0.012120088,11,1.9
427,18992,아르코 미술관,"03087 서울 종로구 동숭길 3 (동숭동, 한국문화예술진흥원)",37.5801905,127.0030805,02-760-4850~3,"문화,대학로,관광지,아르코-미술관,미술관,혜화역,아르코,전시,그림",0.026318829,17,3.6
428,19124,구루루,03040 서울 종로구 필운대로 26 (누하동),37.5799175,126.9687776,070-8954-8815,"소품,구루루,구루루공작실,재활용,멀티샵,소품샵, 핸드메이드,생활소품가게,경복궁역,서촌",0.014748996,14,2.2
432,19540,위안부 기억의터,04628 서울중구퇴계로26가길 6 (예장동) 서울종합방재센터,37.559905,126.990346,NA,"위안부,일본군위안부기억의터,남산공원, 기억의터,위안부기억의터,남산",0.014708727,14,2.6
433,19552,(주)남산서울타워 한복문화 체험관,04340 서울 용산구 용산동2가 산 1-11,37.5511694,126.9882266,02-318-5088,"한복체험,서울,문화체험,서울타워,남산,남산서울타워-한복문화-체험관,N서울타워,한복,서울여행",0.020367074,48,7
434,19558,템플스테이 통합정보센터,03145 서울 종로구 우정국로 56 (견지동) 템플스테이 종합정보센터 1층,37.5738835,126.9831643,02-2031-2000,"전통문화체험,템플스테이,체험,사찰,템플스테이-홍보관,불교,인사동",0.006080602,7,1.1
435,19656,성균관대학교 600주년기념관,"03063 서울 종로구 성균관로 25-2 (명륜3가, 성균관대학교)",37.588227,126.993606,02-760-0114,"명륜당,성균관, 대학로,성균관대학교, 혜화역",0.02379708,22,4.3
436,19924,뮤지엄김치간,03149 서울 종로구 인사동길 35-4 (관훈동),37.5739134,126.985153,02-6002-6256,"김치전시,안국역,김치,김치박물관,김치체험관,종각역,김치만들기,뮤지엄김치간",0.007577022,7,1.2
437,19968,라인프렌즈 플래그십 스토어 이태원점,"04405 서울 용산구 이태원로 200 (이태원동, 이태원로200)",37.5374411,126.992182,02-790-0901,"이태원라인스토어, 캐릭터테마숍,라인스토어,캐릭터,이태원역,장난감,라인프렌즈스토어,라인프렌즈",0.034510617,35,6.2
439,20025,너드온어스 (Nerd on earth),04351 서울 용산구 이태원로17길 22 (이태원동),37.5288374,126.9948774,02-798-2221,"아이돌,이태원nerd,2AM,한류,임슬옹,너드온어스,한류스타운영명소, 바, 이태원,K-Pop, 너드바",0.043500491,35,6
440,20029,SMT펜트하우스,06013 서울 강남구 압구정로79길 58 (청담동),37.5253425,127.052,02-6240-9300,"한류,강남,SM엔터테인먼트, EXO,SMT SEOUL, K-Pop,SM, 샤이니, 엑소, 소녀시대, 다이닝닝바, 아이돌, 청담",0.08517424,52,15.3
442,20033,하하&김종국의 401정육식당 홍대본점,04043 서울 마포구 잔다리로 23 (서교동),37.5507121,126.9201884,02-325-0805,"한류스타운영명소,401,K-Star, 오겹살, 하하, 합정,한류,런닝맨,연예인, 목살, 홍대,무한도전, 마포",0.06178482,34,7.1
443,20034,아티지,06017 서울 강남구 언주로168길 7 (신사동),37.5265283,127.0342092,02-549-5482,"강남, 유재석, 연예인, 시아준수, 편집숍, 압구정,아티지, 지성,한류, K-Star,패션",0.069812866,59,17.7
447,20040,두레한식당,05551 서울 송파구 올림픽로 300 (신천동) 롯데백화점 에비뉴엘 월드파타워점 6F,37.5129907,127.1027322,02-3213-2638,"한류, 한식당, K-Pop, 아이돌, 트와이스, 잠실,롯데월드타워, 정연, 공승연,두레,한류스타운영명소",0.135891818,64,19.4
448,20041,이영애화장품 삼청동하우스,03053 서울 종로구 삼청로 67 리아네이처,37.5816287,126.9810336,02-732-2833 / 제품문의 1899-6838 (10시 ~ 18시),"삼청동, 대장금, 리아네이처, 이영애, 쇼핑,연예인,한류, 안국역, K-Star, 화장품,K-Beauty",0.012410804,11,1.8
450,20048,에이바이봄 1호점,06016 서울 강남구 선릉로152길 30 (청담동),37.524223,127.0412991,02-516-8765,"K-Beaut, 안투라지,한류, 압구정로데오, 뷰티, 전시, 네일, 연예인, 헤어, 메이크업, 산다라박, 웨딩, 제시카, K-Star, 에이바이봄, 미용실,한예슬,The K2, 강남",0.07686711,58,16.2
451,20050,자비시주얼리,"06017 서울 강남구 압구정로42길 36 (신사동, 금광아크존1) 1층",37.5265308,127.034518,02-555-8049,"목걸이,팔찌, 악세사리,비스트, 아이돌, 주얼리, 한류, 자비시주얼리,K-Pop",0.070055407,59,17.6
452,20051,장진우식당,"04344 서울 용산구 회나무로13가길 40 (이태원동, 남산탕)",37.5407977,126.991794,070-8160-0872,"공유,레스토랑, 녹사평, 연예인, 경리단길, 장진우식당, 장진우, 이태원,공효진, K-Star, 다이닝바, 이탈리안,한류",0.03127116,28,4.9
453,20052,카나비 스트릿 (CARNABY ST),04789 서울 성동구 왕십리로 136 (성수동1가),37.5386653,127.0467281,02-463-0305,"한류스타단골명소, 윤아,카나비 스트리트, 지창욱,한류,K-Star, 성수동, 뚝섬역,카페, The K2, 소녀시대, 연예인",0.074283248,35,10.1
454,20068,컬처앤네이처,"06062 서울 강남구 도산대로 404 (청담동, 퍼스트빌딩)",37.522897,127.0398344,02-3444-1999,"고준희, 공승연, K-Star, 김남길, 컬처앤네이처, 손태영, 네일, 한선화, 공유,한류,웨딩, 청담, 메이크업,헤어,연예인, 뷰티, K-Beauty, 미용실",0.076484961,61,17.6
456,20070,젠틀몬스터 신사가로수길 플래그십 스토어,06028 서울 강남구 압구정로10길 23 (신사동),37.522042,127.0220525,070-5080-0196,"드라마, 신사역, 조정석, 아이웨어, 쇼핑,젠틀몬스터, 선글라스, 패션,가로수길, 공효진,한류, K-Drama, 질투의 화신",0.063921711,62,19.5
457,20071,신세계면세점 (명동점),"04530 서울 중구 퇴계로 77 (충무로1가, 신세계백화점) 8층 ~ 12층",37.5603074,126.9808307,1661-8778,"신세계면세점,연예인, 뷰티,한류,쇼핑, 면세점, 회현역,신세계백화점, K-Beaut, 명동,명품, 소년24,신세계본점,K-Star",0.009229856,9,1.8
458,20072,펭귄스카페 (S&Penguins cafe),06640 서울 서초구 사임당로 60 (서초동) 2층,37.4887046,127.0164761,02-3472-9993,"아이오아이,한류, 김소혜, 카페,펭귄스카페, I.O.I, 아이돌, K-Pop, 교대역,프로듀스 101",0.088909865,68,19.9
459,20073,설빙 신림2호점,08760 서울 관악구 신림로 353 (신림동) 2층,37.4857317,126.9291752,02-882-9080,"팥빙수,신림, 이종현, 공승연, 씨엔블루,CNBLUE,설빙, K-Pop, 카페,한류, 우리결혼했어요,아이돌",0.09740072,96,25.9
461,20076,삼해소주가,"03051 서울 종로구 창덕궁길 142 (원서동), 101호",37.583241,126.9879962,070-8202-9165,"술,무형문화재,체험,서울가스트로투어,삼해소주공방, 안국역,김택상명인,삼해주,삼해소주가",0.016483909,16,2.7
462,20193,스튜디오콘크리트,04417 서울 용산구 한남대로 162 (한남동),37.5424041,127.0024942,02-794-4095,"유아인,한류,카페,복합문화공간,유아인카페,한남동콘크리트,유아인전시회,한남,스튜디오콘크리트, 예술, 전시",0.035708067,41,6.7
463,20257,카몽(KAMONG),"06631 서울 서초구 서초대로 356 (서초동, 서초지웰타워)",37.4954188,127.0201969,02-522-5949,"카몽 ,카이 , 한류,엑소,EXO,K-pop,한류스타운영명소,교대역 , 카페, 와플",0.08461022,66,19.7
465,20547,국립중앙박물관 어린이박물관,"04383 서울 용산구 서빙고로 137 (용산동6가, 국립중앙박물관)",37.5238506,126.9804702,02-2077-9000,"문화재,박물관,전시,국립중앙박물관-어린이박물관,어린이박물관,관람,이촌역,관광지,국립중앙박물관,유물",0.045541671,34,8
466,20548,국립한글박물관,"04383 서울 용산구 서빙고로 139 (용산동6가, 한글박물관)",37.5211917,126.9809278,02-2124-6200,"관람,관광지,서빙고역,훈민정음,전시,한글놀이터,이촌역,국립한글박물관,한글,한국어,박물관",0.048214703,33,7.7
467,20549,경찰박물관,"03178 서울 종로구 새문안로 41 (신문로2가, 경찰박물관)",37.5689839,126.9696528,02-3150-3681,"유물,박물관,경찰역사,서대문역,경찰체험,전시,광화문역,경찰박물관",0.00944345,9,1.3
468,20550,국립고궁박물관,"03045 서울 종로구 효자로 12 (세종로, 국립고궁박물관)",37.5765793,126.9750965,02-3701-7500,"문화재,서울관광,유물,관광지,경복궁역,국립고궁박물관,박물관,전시",0.008239523,10,1.5
469,20731,아라리오뮤지엄 인 스페이스,03058 서울 종로구 율곡로 83 (원서동),37.5819681,126.9891841,02-736-5700,"아라리오,전시,뮤지엄,아라리오뮤지엄-인-스페이스,안국역,예술,미술관,현대미술",0.016143251,14,2.6
471,20766,시네코아셰프전용관,"03191 서울 종로구 삼일대로 386 (관철동, 시네코아)",37.568878,126.988095,02-766-0815,"공연,요리대결,아카펠라,공연장,시네코아셰프전용관,뮤지컬,관광지,청계천,경복궁,비밥,종로3가역",0.009020199,5,1.1
473,21128,백인제가옥,03055 서울 종로구 북촌로7길 16 (가회동),37.580642,126.9840665,"02-724-0200, 0232","영화암살,문화유산,서울역사박물관,백인제,백인제가옥,안국역,북촌,가회동,한옥,민속문화재",0.012321167,13,2.2
474,21278,롯데월드타워,05551 서울 송파구 올림픽로 300 (신천동),37.5200705,127.0995,02-3213-5000,"쇼핑몰 ,전망대 ,랜드마크 ,서울스카이,잠실역 ,무한도전 ,123층,롯데월드타워 ,롯데월드몰 ,아쿠아리움",0.13011359,64,19.3
475,21287,박물관은 살아있다 인사동점,"03163 서울 종로구 인사동길 12 (인사동, 대일빌딩)",37.5718407,126.9872086,02-2034-0600,"인사동,종각역,서울여행,서울관광,종로3가역,박물관은-살아있다-인사동점,체험",0.008487474,8,1.3
476,21295,다이나믹 메이즈 서울인사동점,"03146 서울 종로구 인사동길 44 (관훈동, 쌈지길)",37.5743092,126.9849234,02-2034-0600,"인사동길,오락,다이나믹-메이즈,해치,서울여행,종로3가역,종각역,체험",0.007644034,8,1.3
477,21299,놀이똥산,"03161 서울 종로구 인사동5길 41 (공평동, 하나빌딩) 지하 1층",37.5720052,126.9842013,02-2034-0606,"오락,체험,놀이똥산,종로3가역,체험,쌈지길,안국역,서울여행,서울관광,인사동",0.005751539,6,1
479,22073,성수동 유니온스타 볼링클럽,"04782 서울 성동구 연무장7길 12 (성수동2가, 세대빌딩)",37.5436294,127.0548318,02-461-0707,"김수현,성수동,유니온스타,지드래곤볼링클럽,빅뱅,한류스타단골명소,볼링클럽",0.07999827,46,13.9
480,22602,성재전통건축자료관,03057 서울 종로구 창덕궁1가길 19 (원서동),37.5802081,126.9879863,02-742-1311,"전시,안국역,전시관,성재전통건축자료관,자료관,전통,목조건축, 문화,건축조영,전통건축물",0.014021792,13,2.3
482,22888,숭례문,04528 서울 중구 세종대로 40 (숭례문(남대문)),37.5599526,126.975302,042-481-4650,"한국문화재,서울관광,국보제1호,서울문화재,숭례문,남대문,남대문,국보1호,문화재,서울여행,회현역,서울투어,국보",0.010151255,11,2
483,22993,정샘물뷰티 정샘물 플롭스,06028 서울 강남구 압구정로12길 40 (신사동),37.5213489,127.0224734,02-6713-5345,"K-beauty,한류스타단골명소,송혜교,전지현,한류메이크업",0.064717987,62,19.5
485,23460,백남준기념관,03105 서울 종로구 종로53길 12-1 (창신동),37.5730106,127.0137485,02-2124-8944,"백남준,백남준기념관,서울명소,서울,서울투어,서울여행,종로관광지,종로명소",0.034850738,16,3.6
486,23466,서울함 공원,"03954 서울 마포구 마포나루길 407 (망원동, 세븐일레븐)",37.5534625,126.8973542,02-332-7500,"함상,한강공원,서울함공원,서울함,망원,서울함,수변문화공원,서울여행,서울,서울투어,한강함상공원,한강,서울새명소",0.083267959,44,10.8
487,23496,서울로7017,04501 서울 중구 만리재로37길 19 (만리동1가),37.5565393,126.9672392,02-313-7017,"서울새관광지,서울투어,서울관광,서울로7017,서울로,서울여행,윤슬,장미빙수,서울화반,만리동,서울야경,여행자카페",0.017466007,16,2.8
488,23518,서울새활용플라자,"04807 서울 성동구 자동차시장길 49 (용답동, 서울새활용플라자)",37.5585626,127.0582435,02-2153-0400,"장한평, 업사이클, 환경, 디자인, 마켓,서울디자인재단,서울새명소,서울여행,새활용, 전시,서울투어,서울관광,서울새활용플라자",0.07988976,29,8.7
489,23532,세마 벙커,07327 서울 영등포구 의사당대로 지하 101 (여의도역),37.5229725,126.92247,02-2124-8941,"SeMA Bunker,비밀벙커,SeMA 벙커,서울여행, 여의도 지하 비밀벙커,여의도여행, 여의도 환승센터,서울,서울투어,벙커",0.073201643,40,8.5
490,23533,서울하수도과학관,04808 서울 성동구 자동차시장길 3 (용답동),37.562301,127.0577799,02-2211-2540,"서울의새명소,서울투어,새명소,서울,서울하수도과학관,과학관,서울여행,새로운관광지,하수도",0.079008588,32,9.8
491,23538,서울바이오허브,"02455 서울 동대문구 회기로 117-3 (회기동, 한국농촌경제연구원)",37.5923191,127.0492396,02-969-3300,"서울의새명소,서울바이오허브,바이오허브,서울투어, 바이오창업,서울바이오,서울여행, 창업지원",0.073809257,36,8.8
492,23543,문화비축기지,03914 서울 마포구 증산로 87 (성산동),37.5625072,126.8928088,02-376-8410,"서울여행,미래기지,도시재생,문화비축기지,문화비축,서울신관광지,서울새명소,마포여행,재생공간,서울투어",0.086552111,48,12.5
493,23559,서울혁신파크,03371 서울 은평구 통일로 684 (녹번동),37.608608,126.933778,02-389-7512~3,"서울여행,서울새명소20,서울혁신파크,혁신파크,사회혁신,서울혁신,불광역,서울투어,공원,서울의새명소",0.059937817,33,7.4
494,23561,세운전자상가,"03194 서울 종로구 청계천로 159 (장사동, 세운상가)",37.5693263,126.995229,02-2271-2344,"종로,서울새명소20,을지로,서울새명소,서울여행,청계천,다시세운상가,서울투어,다시세운,종로여행,세운,세운상가",0.016140763,7,1.7
495,23563,덕수궁돌담길,"04519 서울 중구 세종대로 99 (정동, 덕수궁)",37.5658049,126.9751461,02-751-0734,"서울신관광지,서울의새명소,서울여행,서울투어,덕수궁,서울새명소20,돌담길,덕수궁돌담길",0.005316028,5,1.1
496,23564,양재 R&CD 혁신허브,"06764 서울 서초구 태봉로 114 (우면동, 한국교원단체총연합)",37.465881,127.028356,02-2135-6818,"양재-RCD-혁신허브,선바위역,양재시민의숲역,서울새명소,양재역",0.114619145,81,24.7
497,23571,서울창업허브,"04147 서울 마포구 백범로31길 21 (공덕동, 서울창업허브, 서울복지타운)",37.5468225,126.9500658,02-2115-2040,"서울창업허브,외식창업,서울시,서울새명소,스타트업,네트워킹,서울여행,공덕,강연,예비창업,창업,창업허브",0.036752604,26,5.1
498,23601,경춘선숲길,01863 서울 노원구 공릉로55길 88,37.6320057,127.0679378,02-3783-5977,"기차숲길,경춘선,경춘선숲길,서울여행,서울의새명소,월계역,서울투어,기찻길,서울관광,화랑대역,기찻길여행",0.108707413,62,18.6
499,23602,서울시50플러스 남부캠퍼스,"08350 서울 구로구 오류로 36-25 (오류동, 50플러스 남부캠퍼스)",37.4880021,126.8405502,02-460-5350,"남부캠퍼스,서울의새명소,신중년,50+,서울시50플러스-남부캠퍼스,중장년,서울시50,50플러스,서울시50플러스재단",0.160666586,95,25.4
500,23605,광희문,04612 서울 중구 퇴계로 350 (신당동),37.5643706,127.0104213,02-3369-5882,"4소문,서울투어,동대문역사문화공원,서울여행,광희문,서울관광지,서울4소문",0.031729543,14,3.4
501,23606,혜화문,"03076 서울 종로구 창경궁로 307 (혜화동, 혜화문)",37.586755,127.0003554,02-120,"혜화동,혜화문,4소문,서울투어,서울여행,사소문,혜화",0.027467846,22,4.7
502,23625,장안평자동차산업종합정보센터,04808 서울 성동구 자동차시장1길 70 (장안평중고자동차시장),37.5602543,127.0595299,02-2213-1370,"장안평자동차산업종합정보센터,장안평역,서울새명소,성동구",0.080956598,41,11.7
503,23629,서울시립과학관,"01792 서울 노원구 한글비석로 160 (하계동, 서울시립과학관)",37.6419109,127.0776129,02-970-4500,"과학프로그램,과학전시,서울과학관,서울과학,서울전시,서울새명소,과학,서울과학전시,전시,서울시립과학관,서울여행,과학전시장,서울시립과학관",0.122348234,79,23.6
505,23759,돈의문터,03181 서울 종로구 새문안로 29 (강북삼성병원),37.5683585,126.9674846,02-120,"사소문,서대문역,서대문,서울여행,문화재,돈의문,사적지,서울문화,유적지,서울문화재,돈의문터",0.011647816,10,1.4
506,23760,숙정문,"02822 서울 성북구 대사관로 1 (성북동, 홍련사(조계종))",37.5961577,126.9848861,02-747-2152,"북악산,성곽길,한양도성,한양도성길,문화재,한양도성여행,삼청터널,서울성곽길,삼청동,유적지,숙정문,북악스카이,서울성곽,사대문,서울문화재",0.027406673,37,4.8
507,23761,돈의문 박물관마을,"03178 서울 종로구 송월길 14-3 (신문로2가, 국도빌딩)",37.5687865,126.9685111,-7653,"잘생긴서울,돈의문마을,서대문,도시건축비엔날레,도시건축,서울의새명소20,돈의문박물관,서대문역,돈의문박물관마을,돈의문",0.010593354,11,1.4
614,27232,삼청로 관광 안내소,03053 서울 종로구 삼청로 68 (안송빌딩),37.5815256,126.9813135,-10115,"삼청동,여행,삼청로-안내소,관광안내소,여행,안내소",0.012356315,11,1.8
615,27296,망우리공원,02178 서울중랑구망우로 570 (망우묘지관리사무소),37.595408,127.112249,NA,"망우산-사색의-길,중랑구,휴식,망우,자연,둘레길",0.135682282,76,19.2
616,27303,카카오프렌즈 강남 플래그십 스토어,06612 서울 서초구 강남대로 429 (동일빌딩) 유창빌딩 1~3층,37.5007381,127.0257723,-7514,"네오,콘,라이언,튜브,무지,프로도,카카오프렌즈 강남 플래그십 스토어,제이지,어피치,카카오톡,강남",0.083005494,67,20.1
617,27304,카카오프렌즈 홍대 플래그십 스토어,"04050 서울 마포구 양화로 162 (동교동, 좋은사람들 빌딩) 좋은사람들빌딩 1~3층",37.5549797,126.922095,-6034,"네오,라이언,무지,콘,홍대,어피치,제이지,카카오톡,튜브,카카오프렌즈-홍대-플래그십-스토어,프로도",0.058782263,33,6.8
618,27380,이음피움 봉제역사관,"03097 서울 종로구 창신4가길 26 (창신동, 이음피움 봉제역사관)",37.5747524,127.0103002,-7138,"도시재생,서울,봉제산업,서울여행,서울투어,이음피움-봉제역사관,잘생겼다20",0.031672369,17,3.6
619,27397,서울식물원,"07789 서울 강서구 마곡동로 161 (마곡동, 서울식물원)",37.5692443,126.8353781,-40,"습지원,마곡,주제원,호수원,서울식물원,보타닉파크,열린숲",0.143710256,70,18.3
621,27471,삼보원 종로,03144 서울 종로구 우정국로 53 (견지동),37.5737167,126.9826097,02-765-3475,"불교,오래가게,불교용품점,삼보원,부처님,종로,오래된가게",0.005593099,7,1.2
622,27472,돌 레코드,04571 서울 중구 마장로9길 49-29 (황학동),37.569863,127.0179342,02-2235-7130,"음반가게,음반,LP판,오래가게,돌-레코드,레코드점,추억,오래된가게,CD",0.038849012,13,3.7
624,27475,서울음악사,"04533 서울 중구 을지로 지하 12 (을지로1가, 시청광장지하쇼핑센터)",37.5667606,126.9791443,02-776-4756,"서울시청,음반가게,오래된가게,오래가게,서울음악사",0.002611301,3,0.659
625,27649,성수동 수제화 거리,04793 서울 성동구 성수동2가,37.5394428,127.0542534,NA,"신발,성수동,수제화,유노윤호,동방신기,쇼핑,성수역,tvxq,희망플랫폼,수제화거리",0.08090431,48,14.6
626,27688,서래섬,"06500 서울 서초구 신반포로11길 40 (반포동, 한강공원 반포 안내센터)",37.5097812,126.994744,-4241,"세빛섬,낙조명소,반포,인공섬,한강,서래섬,동작대교,반포대교,도심야경",0.061612344,46,11.9
627,27689,아차산,04948 서울 광진구 영화사로 135 (아차산등산로 입구),37.5537434,127.1003595,-40,"아차산성,낙조명소,아차산,해맞이광장.,일몰,둘레길",0.122274017,80,16.7
628,27690,수국사,03424 서울 은평구 서오릉로23길 8-5 (수국사),37.615944,126.905059,-40,"산책,둘레길,서울,능선,봉산봉수대,고양시,낙조명소,산책길",0.087460583,72,18.4
629,27691,노을공원,"03900 서울 마포구 하늘공원로 84 (상암동, 한국지역난방공사)",37.5725883,126.8822013,-40,"야경.낙조명소,공원,월드컵공원,하늘공원,피크닉,산책,노을공원,캠핑",0.096940393,63,15
630,27812,가원공방,03138 서울 종로구 돈화문로6나길 45 (봉익동),37.5723003,126.992274,02-814-0250,"가원공방,오래가게,옥,오래된가게,무형문화재,옥공예",0.013507099,9,1.8
631,27813,생각하는박물관 소선재,03057 서울 종로구 계동6길 8-3,37.5827482,126.9872681,02-723-7814,박물관,0.015679623,15,2.7
633,27997,그날 그 한복,03062 서울 종로구 율곡로1길 36 (사간동),37.5779554,126.9811738,-3003,"경복궁,경복궁한복,한복사진,한복대여,한복,경복궁사진,경복궁한복대여,한복체험,그날그한복",0.008833803,9,1.4
634,28029,사운즈 한남,04401 서울 용산구 대사관로 35 (한남동),37.5339662,127.0020024,-7874,"복합공간,오피스,한남,주거,의식주정,사운즈-한남,사운즈,리테일",0.04217318,32,6.9
635,28030,라뜰리에 미술관,"04563 서울 중구 장충단로13길 20 (을지로6가, 현대시티타워) 11층 (Gate 4 이용)",37.5686986,127.0076666,-8769,"뮤지컬,복합문화공간,미디어아트,인상주의,라뜰리에,프랑스,테마파크,문화,명화",0.028586216,11,3.3
636,28035,우리유황온천,"05102 서울 광진구 자양로5길 33 (자양동, 와이엠프라젠스파)",37.5309022,127.0840991,-3361,"온천,구의,유황온천,우리유황온천,온천명소,광진구,족욕,유황",0.111835324,58,17.7
637,28036,봉일스파랜드,"08749 서울 관악구 은천로 28 (봉천동, 봉일프라자) 3층",37.4858837,126.9384116,-5694,"서남부, 휴식,봉일스파랜드, 찜질방, 보행탕, 온천, 온천명소",0.092869657,99,26.5
638,28037,비스타워커힐서울,"04963 서울 광진구 워커힐로 177 (광장동, 워커힐호텔)",37.5552126,127.1108905,-2607,"온천,사우나,스카이야드,풋스파,온천명소,웰니스클럽,비스타워커힐서울",0.13256051,74,20.9
640,28051,호미화방,"04039 서울 마포구 홍익로3길 20 (서교동, 서교오피스텔)",37.5534532,126.9216835,02-336-8181,"호미화방,화방,오래된가게,홍대,미대생,오래가게,그림",0.059570941,33,6.9
641,28052,글벗서점,"04056 서울 마포구 신촌로 48 (동교동) 지층, 1층, 2층",37.5576862,126.923487,02-333-1382,"홍대입구,오래가게,책,헌책방,글벗서점,서점,오래된가게,외국책",0.056815897,66,19.3
643,28239,롯데월드타워,"05551 서울 송파구 올림픽로 300 (신천동, 롯데월드타워앤드롯데월드몰) 7층",37.5129907,127.1027322,-9394,"빌딩, 롯데타워, 롯데월드타워",0.135891818,64,19.3
644,28251,대림중앙시장,07419 서울 영등포구 도림천로11길 26-1 (대림동),37.4920108,126.8982798,-8866,"동네시장, 전통시장,대림중앙시장, 먹거리,차이나타운,대림동",0.111868944,84,21.9
645,28252,남성사계시장,06997 서울 동작구 동작대로29나길 10,37.4883973,126.9806437,-3458,"남녀노소,총신대입구역, 동네시장,남성사계시장, 먹거리, 전통시장, 사계절",0.080988937,53,12.7
646,28253,영천시장,03734 서울 서대문구 성산로 704 (서대문경찰서교통안내센터),37.5715736,126.9601149,-2210,영천시장,0.019100786,14,2.5
647,28254,연서시장,"03345 서울 은평구 통일로 850 (불광동, 연서시장)",37.6193051,126.9218902,-3119,"전통시장, 먹거리, 은평구, 먹자골목,동네시장,연서시장,연신내역",0.075927643,40,9.1
648,28255,금남시장,04730 서울 성동구 장터5길 2-15 (금호동3가),37.5484926,127.0216754,-7474,"금호동,금남시장, 왕족발, 동네시장, 떡집,전통시장",0.04742975,28,6
649,28256,인사1길 컬쳐스페이스,03164 서울 종로구 인사동길 7,37.5714435,126.9867046,-8543,"공예,인사1길-컬쳐스페이스, 인사동,재생공간,현대, 전시회, 개성, 전통, 디자인",0.007893164,7,1.2
650,28278,청계천 판잣집 체험관,"04704 서울 성동구 청계천로 530 (마장동, 청계천박물관) 청계천 박물관 앞",37.5712861,127.0350222,-9344,"체험, 청계천박물관, 구멍가게,청계천-판잣집-체험관, 프로그램, 학창시절, 추억의 교실,만홧가게",0.055966665,21,6.5
651,28280,사직공원,"03027 서울 종로구 사직로9길 5 (사직동, 사직근린공원)",37.5760163,126.9679914,-4902,"사직공원, 여유, 사직단, 경복궁역, 휴게공간,놀이터",0.012934342,15,2.2
652,28327,연희사진관,03766 서울 서대문구 신촌로 175 (대현동),37.5569436,126.9454,02-363-2039,"서대문구, 오래가게,사진관,이대역, 오래된가게,연희사진관",0.03590751,23,4.2
654,28329,독수리다방,"03776 서울 서대문구 연세로 36 (창천동, 독수리빌딩) 8층",37.5587229,126.9372291,02-363-1222,"음악다방,독수리다방, 신촌,연세대, 오래된가게, 오래가게, 문학, 야경",0.043192373,26,5.3
655,28330,최루탄해장라면 훼드라,03789 서울 서대문구 연세로5길 32 (창천동),37.5563281,126.9353504,02-323-3201,"민주항쟁, 신촌역, 오래가게,라면,훼드라, 아지트,오래된가게, 신촌역",0.045641308,26,5.4
657,28332,홍익문고,"03779 서울 서대문구 연세로 2 (창천동, 홍익문고)",37.5557298,126.9370572,02-392-2020,"신촌역,서점, 책방, 달려라피아노, 오래된가게, 신촌,홍익문고,오래가게",0.044189409,25,5.1
658,28333,복지탁구장,03779 서울 서대문구 연세로 8 (창천동) 4층,37.5561629,126.9371104,02-392-1858,"복지탁구장, 오래가게,탁구,운동시설, 오래된가게, 신촌역, 차없는거리",0.044006885,25,5.1
659,28334,CGV 명동역 씨네 라이브러리점,"04536 서울 중구 퇴계로 123 (충무로2가, 하이헤리엇) 10, 11F",37.5612169,126.9853536,544-1122,"문화공간,CGV-씨네-라이브러리, 명동, 휴식,도서관, 책, 도서, 영화관",0.010283396,9,2
660,28335,공덕시장,"04214 서울 마포구 만리재로 19 (공덕동, 공덕시장)",37.5450726,126.9533388,-708,"전집,재래시장, 맛집,고깃집,공덕시장, 족발 공덕역",0.035404287,23,4.7
661,28338,이화여자대학교,"03760 서울서대문구이화여대길 52 (대현동, 이화여자대학교)",37.559986,126.945501,NA,ECCEwha-Campus-Complex,0.034873924,29,4.1
662,28339,봉원사,03721 서울서대문구봉원사길 75-66,37.573734,126.947832,02-392-3007 ext. 8,"한글학회, 신라, 마당, 조선,봉원사, 축제, 절, 연꽃",0.0315593,32,4.2
663,28340,연세대학교 서울캠퍼스,"03722 서울 서대문구 연세로 50 (신촌동, 연세대학교)",37.565784,126.938572,02-2123-2114,"언더우드,연세대학교, 신촌,연세대 캠퍼스, 대학교, 캠퍼스",0.040674799,27,4.9
664,28350,스타벅스 이대R점,"03767 서울 서대문구 이화여대길 34 (대현동, 신흥빌딩)",37.5583821,126.9459524,-8679,"이대역, 스타벅스,이대, 최초,카페,스타벅스 1호점",0.034910606,22,4.3
665,28351,피터팬1978본점,03721 서울 서대문구 봉원사길 75-66,37.5712845,126.9461068,02-337-4775,"베이커리,피터팬1978, 단팥빵, 연희동, 브런치, 빵집, 수제빵",0.033036944,33,6.9
667,28457,더리버 마리나,06500 서울 서초구 신반포로11길 39 (한강반포지구 내 유선장) The River,37.5097812,126.994744,-2431,"휴양지, 프리미엄,한강,요트,더리버 마리나",0.061612344,47,12.2
668,28503,아크앤북 시청점,"04523 서울 중구 을지로 29 (을지로1가, 부영 을지빌딩) B1F",37.5659887,126.9807672,-13538,아크앤북,0.003776333,4,0.954
669,28656,서울로7017,04633 서울 중구 퇴계로8길 49-4,37.557122,126.9799515,-9172,"오래가게, 김구, 간이운동장, 광장,동상,백범광장공원, 남산, 휴식, 독립운동가",0.012279677,16,2.8
670,28658,소월길어린이공원,서울특별시용산구이태원동 463,37.544878,126.989606,NA,소월길,0.026656027,27,4.7
671,28659,해방촌시흥시장,04339 서울 용산구 용산동2가 1-457,37.545465,126.984966,NA,"레스토랑,핫플레이스, 이태원, 오래가게,해방촌 골목,해방촌, 골목길, 오래된가게, 카페,용산구",0.024618256,25,4
672,28700,SKY31 푸드애비뉴,"05551 서울 송파구 올림픽로 300 (신천동, 롯데월드타워앤드롯데월드몰) 31층",37.5129907,127.1027322,-13125,SKY31-푸드애비뉴,0.135891818,64,19.3
673,28748,한식문화관,"04521 서울 중구 청계천로 40 (다동, 한국관광공사) 서울센터 4층",37.5684628,126.9816005,NA,한식문화관,0.002671427,2,0.447
674,28776,어린이대공원,서울특별시광진구능동능동로 216,37.55258,127.081009,-4876,"에티켓, 서울시, 월드컵경기장,어린이대공원 반려견 놀이터,놀이터, 어린이대공원, 반려견, 어린이대공원,보라매공원",0.103294612,47,13.4
676,28780,랩원오원,"04048 서울 마포구 독막로7길 38 (서교동, 가람빌딩) 1층",37.5493476,126.919554,-5298,"셀프계산, 데님, 무인스토어, 남자청바지,랩원오원, 청바지, 패션, LAB101, 무인점포, 합정역, 상수역",0.062811475,34,7.2
677,28782,동대문디자인플라자,"04566 서울 중구 을지로 281 (을지로7가, 디자인장터) 동대문디자인플라자 광장편의시설 지하2층",37.5667521,127.0101046,-2851,"동대문디자인플라자, DDP",0.031126694,12,3.3
679,28794,성수연방,04784 서울 성동구 성수이로14길 14 (성수동2가),37.5414775,127.0569489,-9067,"성수연방, 성수, 창화당, 소사이어티플랫폼, 생활문화, 라이프스타일숍, 성수동,띵굴스토어, 서점, 식움료",0.082706331,46,14.3
682,29048,한신옹기,04338 서울 용산구 신흥로 7 (용산동2가),37.5431326,126.9856027,-4401,"포토존, 오래가게, 자기, 오래된가게,옹기,한신옹기, 도자기, 서울, 해방촌,이촌",0.027035288,26,4.8
683,29050,이태원외국서점,04345 서울 용산구 녹사평대로 208 (이태원동),37.536219,126.9872018,-8962,"책방,오래가게, 녹사평, 외서,포린북스토어, 서점, 오래된가게",0.034130688,31,5.5
685,29236,오재미동,"04557 서울 중구 퇴계로 지하 199 (필동2가, 충무로역 3,4호선)",37.5598189,126.9946111,-1118,오재미동,0.01822651,10,2.3
686,29238,서울메트로미술관,"03170 서울 종로구 사직로 지하 130 (적선동, 3호선 경복궁역)",37.5741078,126.9734494,-15649,"미술관, 서울교통공사, 대관, 전통, 경복궁역, 미술작품,전시,서울메트로미술관, 경복궁",0.007364212,11,1.5
687,29239,녹사평역 지하예술정원,"04353 서울 용산구 녹사평대로 지하 195 (용산동4가, 6호선 녹사평역)",37.5334275,126.9841575,-9081,녹사평역-지하예술정원,0.036299498,26,5.8
688,29381,돈의문전시관,03178 서울 종로구 새문안로 35-54 (신문로2가),37.5691689,126.9687651,-915,"돈의문전시관,경희궁,돈의문박물관마을,아지오, 돈의문, 새문안로, 한정,식당, 유적전시실",0.010325184,11,1.4
689,29394,한국천주교순교자박물관,"04085 서울 마포구 토정로 6 (합정동, 한국천주교순교자박물관)",37.5442575,126.9116126,NA,"전시,순례,절두산순교성지,한국천주교순교자박물관",0.071997729,44,9.5
690,29458,솔밭근린공원,"01007 서울 강북구 삼양로 561 (우이동, 솔밭공원 관리실및화장실)",37.6529618,127.0122387,-7760,솔밭근린공원,0.089923972,79,24.5
691,29459,배봉산근린공원,서울특별시동대문구전농2동전농로16길 97,37.581964,127.063352,NA,배봉산근린공원,0.085199456,61,15.5
692,29502,라바타운,"03176 서울 종로구 경희궁1길 1 (신문로2가, 주식회사 투바앤)",37.5706726,126.9715748,투바앤굿즈 매장 +82-70-4609-6492<br>카페윙클 +82-70-4609-6491,"카페,쇼핑,라바타운, 여행, 관광지,윙클베어,광화문, 라바, 서울,다이노코어,캐릭터샵",0.007625357,9,1.1
693,29545,파미에스테이션,06546 서울 서초구 신반포로 176 (센트럴시티) 파미에스테이션,37.5035985,127.0038577,-6316,"푸드코트, 카페,고속터미널역, 외식공간,파미에스테이션,센트럴시티, 맛집",0.070282177,56,17.5
694,29546,고투몰,"06545 서울 서초구 신반포로 지하 200 (잠원동, 강남터미널지하쇼핑몰)",37.5065978,127.0054105,-8637,고투몰,0.068068866,54,17
695,29548,센트럴시티 터미널,06545 서울 서초구 신반포로 190 센트럴시티터미널(호남선),37.504893,127.003216,-6316,"터미널, 백화점, 버스, 호남선, 영화관, 반포, 고속터미널역, 강남,센트럴시티-터미널",0.068844732,56,17.6
696,29550,커먼그라운드,05071 서울 광진구 아차산로 200 (자양동) 커먼그라운드,37.5411175,127.0660706,-3134,커먼그라운드,0.091455988,51,16
699,29568,무계원,03022 서울 종로구 창의문로5가길 2 (부암동),37.5919699,126.9634479,NA,무계원,0.027483064,31,4.3
700,29578,쉼박물관,03015 서울 종로구 세검정로 209-17 (쉼박물관),37.5994636,126.9556636,-9593,"홍지동,쉼박물관, 기획전, 문화,현대예술, 경복궁역,휴식처, 보존, 전시실, 주제전",0.038134802,73,21.5
